[{"id":"10003","name":"Hauteville - Bonne Nouvelle","lat":48.870774,"lon":2.34965,"cap":17},{"id":"10004","name":"Metz - Faubourg Saint-Denis","lat":48.870893,"lon":2.353521,"cap":48},{"id":"10005","name":"Petites Ecuries - Faubourg Poissonnière","lat":48.873972,"lon":2.348389,"cap":17},{"id":"10006","name":"Petites Ecuries - Faubourg Saint-Denis","lat":48.872871,"lon":2.354215,"cap":28},{"id":"10008","name":"Cité Riverin - Château d'Eau","lat":48.870702,"lon":2.35874,"cap":18},{"id":"10009","name":"Mairie du 10ème","lat":48.872089,"lon":2.357583,"cap":19},{"id":"1001","name":"Quai de l'Horloge - Pont Neuf","lat":48.857059,"lon":2.341798,"cap":17},{"id":"10010","name":"Place Jacques Bonsergent","lat":48.870948,"lon":2.361205,"cap":33},{"id":"10011","name":"Bourse du Travail","lat":48.868977,"lon":2.362344,"cap":17},{"id":"10012","name":"Vinaigriers - Magenta","lat":48.873117,"lon":2.359305,"cap":25},{"id":"10013","name":"Alibert - Jemmapes","lat":48.871044,"lon":2.366104,"cap":60},{"id":"10014","name":"Marseille - Beaurepaire","lat":48.871624,"lon":2.363927,"cap":55},{"id":"10015","name":"Lucien Sampaix - Récollets","lat":48.87433,"lon":2.362123,"cap":46},{"id":"10016","name":"Récollets - Square Villemin","lat":48.875035,"lon":2.359801,"cap":17},{"id":"10017","name":"Gare de l'Est - Fidélité","lat":48.874575,"lon":2.356796,"cap":15},{"id":"10018","name":"Square Alban Satragne","lat":48.875388,"lon":2.355957,"cap":30},{"id":"10019","name":"Paradis - Hauteville","lat":48.875,"lon":2.352276,"cap":31},{"id":"1002","name":"Victoria - Place du Chatelet","lat":48.857993,"lon":2.346917,"cap":22},{"id":"10020","name":"Chabrol - d'Hauteville","lat":48.877018,"lon":2.351318,"cap":11},{"id":"10021","name":"Marché Saint-Quentin","lat":48.877356,"lon":2.354511,"cap":15},{"id":"10023","name":"Gare de l'Est - Verdun","lat":48.876156,"lon":2.360915,"cap":14},{"id":"10025","name":"Jemmapes - Ecluses Saint-Martin","lat":48.877485,"lon":2.366007,"cap":15},{"id":"10026","name":"Gare de l'Est - Chateau Landon","lat":48.879305,"lon":2.362424,"cap":59},{"id":"10027","name":"Dunkerque - Alsace","lat":48.879355,"lon":2.358379,"cap":20},{"id":"10029","name":"Dunkerque - Rocroy","lat":48.880726,"lon":2.351464,"cap":24},{"id":"1003","name":"Saint-Denis - Rivoli","lat":48.859059,"lon":2.347694,"cap":43},{"id":"10031","name":"Louis Blanc - Aqueduc","lat":48.88203,"lon":2.363562,"cap":37},{"id":"10032","name":"Claude Vellefaux - Hôpital Saint-Louis","lat":48.872859,"lon":2.370072,"cap":32},{"id":"10033","name":"Gare du Nord - Saint-Vincent de Paul","lat":48.880956,"lon":2.352431,"cap":24},{"id":"10034","name":"Louis Blanc - La Chapelle","lat":48.884009,"lon":2.359934,"cap":21},{"id":"10036","name":"Aqueduc - Villette","lat":48.883886,"lon":2.367199,"cap":28},{"id":"10037","name":"Quai de Valmy","lat":48.88127,"lon":2.368186,"cap":26},{"id":"10039","name":"Sambre et Meuse - Villette","lat":48.874406,"lon":2.373807,"cap":25},{"id":"10041","name":"Gare du Nord - La Chapelle","lat":48.884178,"lon":2.356106,"cap":18},{"id":"10042","name":"Enghien - Faubourg Poissonnière","lat":48.87242,"lon":2.348395,"cap":33},{"id":"1006","name":"Grande Truanderie - Saint-Denis","lat":48.86263,"lon":2.349807,"cap":33},{"id":"1007","name":"Turbigo - Française","lat":48.863589,"lon":2.347779,"cap":16},{"id":"1008","name":"Les Halles - Saint-Eustache","lat":48.863627,"lon":2.342624,"cap":32},{"id":"10105","name":"Mazagran - Bonne Nouvelle","lat":48.870047,"lon":2.351125,"cap":25},{"id":"10107","name":"Gare du Nord - Hôpital Lariboisière","lat":48.881949,"lon":2.352339,"cap":49},{"id":"10110","name":"Louis Blanc - Jemmapes","lat":48.879331,"lon":2.368449,"cap":31},{"id":"10113","name":"Parmentier - Hôpital Saint-Louis","lat":48.87138,"lon":2.369896,"cap":43},{"id":"10114","name":"Granges aux Belles - Hôpital Saint-Louis","lat":48.874795,"lon":2.366669,"cap":60},{"id":"10115","name":"Granges aux Belles","lat":48.876137,"lon":2.368084,"cap":27},{"id":"1012","name":"Jean-Jacques Rousseau - Deux Ecus","lat":48.862978,"lon":2.341464,"cap":22},{"id":"1013","name":"Place du Palais Royal","lat":48.862383,"lon":2.338482,"cap":67},{"id":"1014","name":"Rivoli - Musée du Louvre","lat":48.863646,"lon":2.334096,"cap":24},{"id":"1015","name":"Place André Malraux","lat":48.863925,"lon":2.335623,"cap":37},{"id":"10152","name":"Gare du Nord - Place de Valenciennes","lat":48.879089,"lon":2.354235,"cap":44},{"id":"1016","name":"Thérèse - Opéra","lat":48.866484,"lon":2.334433,"cap":25},{"id":"10161","name":"Gare de l'Est - Faubourg-Saint-Martin","lat":48.875643,"lon":2.359459,"cap":32},{"id":"10162","name":"Alexandre Parodi - Quai de Valmy","lat":48.879359,"lon":2.366596,"cap":24},{"id":"10163","name":"Gare du Nord - Demarquay","lat":48.881154,"lon":2.358411,"cap":30},{"id":"10164","name":"Claude Vellefaux - Sambre et Meuse","lat":48.875022,"lon":2.370478,"cap":34},{"id":"10165","name":"Gare de l'Est - Place du 11 Novembre 1918","lat":48.876327,"lon":2.358546,"cap":40},{"id":"10166","name":"Strasbourg - Saint-Denis","lat":48.869602,"lon":2.354291,"cap":16},{"id":"1017","name":"Saint-Honoré - 29 juillet","lat":48.865571,"lon":2.330567,"cap":20},{"id":"1018","name":"Alger - Rivoli","lat":48.864774,"lon":2.329449,"cap":21},{"id":"1020","name":"Cambon - Rivoli","lat":48.866143,"lon":2.32518,"cap":40},{"id":"10201","name":"Magenta - Chabrol","lat":48.876495,"lon":2.356099,"cap":24},{"id":"10202","name":"Bichat - Grange aux Belles","lat":48.873688,"lon":2.365015,"cap":30},{"id":"10203","name":"Dunkerque - Faubourg Saint-Denis","lat":48.879591,"lon":2.357031,"cap":51},{"id":"10204","name":"Dunkerque - Maubeuge","lat":48.880433,"lon":2.35289,"cap":35},{"id":"10206","name":"René Boulanger - Lancry","lat":48.868769,"lon":2.359875,"cap":33},{"id":"10207","name":"Charles Robin - Grange aux Belles","lat":48.877377,"lon":2.369846,"cap":23},{"id":"10208","name":"Buisson Saint-Louis - Saint-Maur","lat":48.872274,"lon":2.373328,"cap":30},{"id":"1021","name":"Halles - Bourdonnais","lat":48.860449,"lon":2.346016,"cap":20},{"id":"1022","name":"Danielle Casanova - Place Vendôme","lat":48.868266,"lon":2.330484,"cap":37},{"id":"1023","name":"Saint-Honoré - Musée du Louvre","lat":48.863443,"lon":2.334878,"cap":32},{"id":"1024","name":"Coquillière - Louvre","lat":48.863796,"lon":2.342574,"cap":21},{"id":"1025","name":"Oratoire - Rivoli","lat":48.861343,"lon":2.340005,"cap":18},{"id":"1026","name":"Place du Lieutenant Henri Karcher","lat":48.863491,"lon":2.340067,"cap":30},{"id":"11001","name":"Richard Lenoir - Place de la Bastille","lat":48.853833,"lon":2.369722,"cap":53},{"id":"11002","name":"Roquette - Thiéré","lat":48.855079,"lon":2.373369,"cap":23},{"id":"11003","name":"Keller - La Roquette","lat":48.855551,"lon":2.375278,"cap":34},{"id":"11004","name":"Charonne - Faubourg Saint-Antoine","lat":48.852192,"lon":2.374093,"cap":34},{"id":"11006","name":"Ledru-Rollin - Place du Père Chaillet","lat":48.856434,"lon":2.379021,"cap":37},{"id":"11007","name":"Jean Macé - Faidherbe","lat":48.853375,"lon":2.382862,"cap":78},{"id":"11009","name":"Boulets - Voltaire","lat":48.852187,"lon":2.38903,"cap":38},{"id":"11010","name":"Boulets - Faubourg Saint-Antoine","lat":48.849259,"lon":2.391755,"cap":43},{"id":"11011","name":"Richard Lenoir - Voltaire","lat":48.861643,"lon":2.372749,"cap":25},{"id":"11012","name":"Montreuil - Voltaire","lat":48.850507,"lon":2.393076,"cap":34},{"id":"11014","name":"Place de la Nation - Taillebourg","lat":48.848841,"lon":2.397304,"cap":47},{"id":"11016","name":"Philippe-Auguste","lat":48.851853,"lon":2.393295,"cap":48},{"id":"11017","name":"Charonne - Bureau","lat":48.854176,"lon":2.396093,"cap":47},{"id":"11018","name":"Saint-Maur - République","lat":48.864186,"lon":2.378317,"cap":50},{"id":"11019","name":"Charonne - Philippe-Auguste","lat":48.855603,"lon":2.390546,"cap":32},{"id":"1102","name":"Française - Etienne Marcel","lat":48.864053,"lon":2.347587,"cap":37},{"id":"11020","name":"Belfort - Voltaire","lat":48.856336,"lon":2.38299,"cap":53},{"id":"11021","name":"Charonne - Pierre Bayle","lat":48.858445,"lon":2.390398,"cap":23},{"id":"11022","name":"Roquette - Auguste Laurent","lat":48.858002,"lon":2.381798,"cap":16},{"id":"11023","name":"Saint-Maur - Roquette","lat":48.858689,"lon":2.383554,"cap":46},{"id":"11024","name":"Mairie du 11ème","lat":48.858925,"lon":2.378976,"cap":51},{"id":"11025","name":"Froment - Bréguet","lat":48.857041,"lon":2.372895,"cap":43},{"id":"11026","name":"Chemin Vert - Saint-Maur","lat":48.861125,"lon":2.381299,"cap":45},{"id":"11027","name":"Saint-Ambroise - Parmentier","lat":48.862148,"lon":2.377235,"cap":38},{"id":"11028","name":"Guillaume Bertrand - République","lat":48.863825,"lon":2.380906,"cap":38},{"id":"11029","name":"Ménilmontant - Oberkampf","lat":48.866618,"lon":2.383013,"cap":40},{"id":"11030","name":"Oberkampf - République","lat":48.865316,"lon":2.376115,"cap":24},{"id":"11031","name":"Jacquard - Ternaux","lat":48.86466,"lon":2.373162,"cap":39},{"id":"11032","name":"Jean-Pierre Timbaud - Vaucouleurs","lat":48.867937,"lon":2.377885,"cap":47},{"id":"11033","name":"Bréguet - Sabin","lat":48.856932,"lon":2.370675,"cap":33},{"id":"11034","name":"Parmentier - Fontaine au Roi","lat":48.867877,"lon":2.372706,"cap":48},{"id":"11035","name":"Parmentier - Abel Rabaud","lat":48.869213,"lon":2.371689,"cap":52},{"id":"11036","name":"Jules Ferry - Faubourg du Temple Paris","lat":48.868397,"lon":2.367893,"cap":58},{"id":"11037","name":"Faubourg Du Temple - Republique","lat":48.867872,"lon":2.364898,"cap":38},{"id":"11038","name":"Temple - Charlot","lat":48.865709,"lon":2.365274,"cap":45},{"id":"11039","name":"Richard Lenoir - Jean-Pierre Timbaud","lat":48.865804,"lon":2.369337,"cap":36},{"id":"11040","name":"Temple - Jean-Pierre Timbaud","lat":48.864466,"lon":2.36606,"cap":36},{"id":"11041","name":"Square Saint-Ambroise","lat":48.860934,"lon":2.375841,"cap":43},{"id":"11042","name":"Grand Prieuré - Crussol","lat":48.864661,"lon":2.369227,"cap":49},{"id":"11043","name":"Place Pasdeloup","lat":48.862654,"lon":2.367033,"cap":21},{"id":"11044","name":"Square du Bataclan","lat":48.863376,"lon":2.371133,"cap":20},{"id":"11046","name":"Place de la République - Voltaire","lat":48.866831,"lon":2.365481,"cap":19},{"id":"11047","name":"Amelot - Saint-Sébastien","lat":48.861142,"lon":2.3678,"cap":30},{"id":"11048","name":"Place Mireille Havet","lat":48.850533,"lon":2.383756,"cap":43},{"id":"11101","name":"Charles Delescluze","lat":48.852422,"lon":2.380632,"cap":49},{"id":"11102","name":"Alexandre Dumas - Voltaire","lat":48.852889,"lon":2.389148,"cap":74},{"id":"11103","name":"Pelée - Alphonse Baudin","lat":48.860026,"lon":2.371054,"cap":38},{"id":"11104","name":"Charonne - Robert et Sonia Delaunay","lat":48.855908,"lon":2.392571,"cap":20},{"id":"11105","name":"Parmentier - République","lat":48.864495,"lon":2.375012,"cap":50},{"id":"11107","name":"Faidherbe - Dahomey","lat":48.851358,"lon":2.383823,"cap":44},{"id":"11109","name":"Pierre Levée - Fontaine Timbaud","lat":48.866327,"lon":2.371116,"cap":23},{"id":"11110","name":"Roquette - Folie Regnault","lat":48.859247,"lon":2.386554,"cap":52},{"id":"11111","name":"Léon Frot - Charonne","lat":48.854964,"lon":2.387217,"cap":38},{"id":"11112","name":"Jules Vallès - Charonne","lat":48.854284,"lon":2.384767,"cap":23},{"id":"11113","name":"Richard Lenoir - Republique","lat":48.866718,"lon":2.369254,"cap":58},{"id":"11114","name":"Ledru-Rollin - Charonne","lat":48.853459,"lon":2.377246,"cap":32},{"id":"11115","name":"Montreuil - Gonnet","lat":48.850501,"lon":2.389086,"cap":24},{"id":"1116","name":"Ventadour - Opéra","lat":48.866811,"lon":2.334388,"cap":27},{"id":"1117","name":"Pont Neuf - Rivoli","lat":48.86009,"lon":2.344058,"cap":27},{"id":"1119","name":"Cossonnerie - Sébastopol","lat":48.861327,"lon":2.34942,"cap":24},{"id":"1120","name":"Lavandieres Sainte Opportune - Rivoli","lat":48.85928,"lon":2.346622,"cap":27},{"id":"11201","name":"Faubourg St-Antoine - Place de la Nation","lat":48.848773,"lon":2.393606,"cap":16},{"id":"12001","name":"Bastille - Biscornet","lat":48.851356,"lon":2.36922,"cap":62},{"id":"12002","name":"Lacuée - Lyon","lat":48.849268,"lon":2.370459,"cap":16},{"id":"12005","name":"Crozatier - Faubourg Saint-Antoine","lat":48.85044,"lon":2.378901,"cap":42},{"id":"12007","name":"Gare de Lyon - Chalon","lat":48.845666,"lon":2.374145,"cap":45},{"id":"12008","name":"Hector Malot - Daumesnil","lat":48.846936,"lon":2.377088,"cap":54},{"id":"12009","name":"Charenton - Diderot","lat":48.846171,"lon":2.379307,"cap":18},{"id":"1201","name":"Perrault - Place du Louvre","lat":48.860274,"lon":2.341247,"cap":28},{"id":"12010","name":"Daumesnil - Picpus","lat":48.837469,"lon":2.401765,"cap":21},{"id":"12011","name":"Charenton - Place du Col Bourgoin","lat":48.844867,"lon":2.382579,"cap":35},{"id":"12013","name":"Montgallet - Reuilly","lat":48.844291,"lon":2.389648,"cap":15},{"id":"12015","name":"Place de la Nation - Picpus","lat":48.846822,"lon":2.400113,"cap":36},{"id":"12016","name":"Saint-Mande - Picpus","lat":48.845128,"lon":2.401569,"cap":35},{"id":"12017","name":"Saint-Mandé - Docteur Arnold Netter","lat":48.844626,"lon":2.404946,"cap":53},{"id":"12018","name":"Saint-Mandé - Fabre d'Eglantine","lat":48.845358,"lon":2.396502,"cap":34},{"id":"12019","name":"Gare de Reuilly - Picpus","lat":48.842674,"lon":2.397294,"cap":28},{"id":"12020","name":"Cours de Vincennes - Soult","lat":48.846919,"lon":2.410522,"cap":45},{"id":"12022","name":"Sahel - Général Michel Bizot","lat":48.840873,"lon":2.404444,"cap":47},{"id":"12024","name":"Gare de Bercy","lat":48.839795,"lon":2.382607,"cap":35},{"id":"12026","name":"Place Ginette Hamelin","lat":48.837853,"lon":2.382064,"cap":51},{"id":"12027","name":"Montgallet - Charenton","lat":48.842648,"lon":2.386165,"cap":16},{"id":"12028","name":"Vivaldi - Antoine-Julien Hénard","lat":48.841924,"lon":2.389729,"cap":27},{"id":"12031","name":"Gabriel Lamé","lat":48.835121,"lon":2.385535,"cap":36},{"id":"12032","name":"Porte Dorée","lat":48.835434,"lon":2.407713,"cap":36},{"id":"12033","name":"François Truffaut - Saint Emilion","lat":48.833724,"lon":2.386602,"cap":66},{"id":"12034","name":"Pirogues de Bercy - Libourne","lat":48.832308,"lon":2.38637,"cap":49},{"id":"12035","name":"Madagascar - Meuniers","lat":48.834605,"lon":2.397065,"cap":47},{"id":"12036","name":"Reuilly - Place Felix Eboue","lat":48.840303,"lon":2.39463,"cap":42},{"id":"12037","name":"Reuilly - Daumesnil","lat":48.839539,"lon":2.397252,"cap":36},{"id":"12038","name":"Picpus - Louis Braille","lat":48.839989,"lon":2.400526,"cap":58},{"id":"12039","name":"Général Michel Bizot - Claude Decaen","lat":48.834813,"lon":2.400928,"cap":50},{"id":"12040","name":"Porte de Charenton","lat":48.83124,"lon":2.398911,"cap":67},{"id":"12041","name":"Bois de Vincennes.","lat":48.833806,"lon":2.413222,"cap":60},{"id":"12043","name":"Daumesnil - Hébrard","lat":48.8429,"lon":2.38474,"cap":40},{"id":"12101","name":"Charenton - Prague","lat":48.848175,"lon":2.376358,"cap":26},{"id":"12102","name":"Bercy - Traversiére","lat":48.846193,"lon":2.37038,"cap":30},{"id":"12105","name":"Bercy - Villot","lat":48.841795,"lon":2.376785,"cap":33},{"id":"12106","name":"Gare de Lyon - Roland Barthes","lat":48.843957,"lon":2.379088,"cap":68},{"id":"12107","name":"Diderot - Pierre Bourdan","lat":48.847649,"lon":2.390258,"cap":21},{"id":"12108","name":"Bercy.","lat":48.839967,"lon":2.378863,"cap":66},{"id":"12109","name":"Mairie du 12ème","lat":48.840855,"lon":2.387555,"cap":30},{"id":"12111","name":"Claude Decaen - Cannebière","lat":48.837614,"lon":2.397254,"cap":45},{"id":"12113","name":"Cardinal Lavigerie","lat":48.832934,"lon":2.402637,"cap":46},{"id":"12114","name":"Victor Hugo - Jeanne Jugan","lat":48.843949,"lon":2.415081,"cap":28},{"id":"12115","name":"Porte de Vincennes","lat":48.846454,"lon":2.415514,"cap":33},{"id":"12119","name":"Dom-Pérignon - Gravelle","lat":48.825482,"lon":2.40988,"cap":50},{"id":"12120","name":"Lac Daumesnil - Saint-Maurice","lat":48.827746,"lon":2.418365,"cap":50},{"id":"12122","name":"Bois de Vincennes - Polygone","lat":48.835445,"lon":2.431421,"cap":51},{"id":"12123","name":"Château de Vincennes","lat":48.844232,"lon":2.43921,"cap":52},{"id":"12125","name":"Pyramide - Parc Floral","lat":48.837442,"lon":2.440452,"cap":50},{"id":"12126","name":"Gravelle - Route du Bac","lat":48.824407,"lon":2.418455,"cap":51},{"id":"12127","name":"Tremblay - Lac des Minimes","lat":48.834131,"lon":2.454752,"cap":48},{"id":"12128","name":"Pyramide - Ecole du Breuil","lat":48.82238,"lon":2.458687,"cap":34},{"id":"12129","name":"Bois de Vincennes - Porte Jaune","lat":48.838751,"lon":2.460549,"cap":35},{"id":"12150","name":"Bastille - Quai de la Rapée","lat":48.846824,"lon":2.366936,"cap":27},{"id":"12151","name":"Gare de Lyon - Place Louis Armand","lat":48.845515,"lon":2.37265,"cap":60},{"id":"12153","name":"Terroirs de France - Lheureux","lat":48.83212,"lon":2.388618,"cap":55},{"id":"12154","name":"Square Georges Melies","lat":48.840702,"lon":2.409668,"cap":40},{"id":"12155","name":"Rottembourg - Général Michel Bizot","lat":48.837878,"lon":2.404405,"cap":43},{"id":"12156","name":"Niger - Soult","lat":48.843699,"lon":2.410361,"cap":24},{"id":"12157","name":"Fabre d'Eglantine - Place de la Nation","lat":48.847112,"lon":2.39562,"cap":68},{"id":"12161","name":"Diderot - Reuilly","lat":48.847208,"lon":2.386127,"cap":44},{"id":"12163","name":"Hippodrome Paris-Vincennes","lat":48.820484,"lon":2.446271,"cap":42},{"id":"12164","name":"Stade Pershing","lat":48.829108,"lon":2.458354,"cap":26},{"id":"12165","name":"Champs de Manoeuvre - Cartoucherie","lat":48.835261,"lon":2.447974,"cap":35},{"id":"12166","name":"Parc Floral du Bel Air","lat":48.839286,"lon":2.43856,"cap":25},{"id":"12201","name":"Dugommier","lat":48.838811,"lon":2.389658,"cap":53},{"id":"12202","name":"Charenton - Wattignies","lat":48.836919,"lon":2.391678,"cap":40},{"id":"12203","name":"Nicolaï - Charenton","lat":48.835479,"lon":2.392895,"cap":44},{"id":"12204","name":"Prague - Théophile Roussel","lat":48.850331,"lon":2.375822,"cap":34},{"id":"12507","name":"Hippodrome de Paris Vincennes","lat":48.820485,"lon":2.450281,"cap":100},{"id":"12615","name":"Welovegreen","lat":48.839431,"lon":2.435349,"cap":610},{"id":"13001","name":"Port-Royal - Hôpital du Val-de-Grâce","lat":48.837668,"lon":2.344814,"cap":18},{"id":"13002","name":"Arago - Glacière","lat":48.834861,"lon":2.344577,"cap":27},{"id":"13005","name":"Cordelières - Arago","lat":48.835481,"lon":2.348572,"cap":60},{"id":"13006","name":"Duméril - Jeanne d'Arc","lat":48.838152,"lon":2.357108,"cap":40},{"id":"13007","name":"Le Brun - Gobelins","lat":48.835093,"lon":2.353468,"cap":48},{"id":"13008","name":"Place d'Italie - Soeur Rosalie","lat":48.831909,"lon":2.354694,"cap":52},{"id":"13009","name":"Auguste Blanqui - Corvisart","lat":48.830099,"lon":2.350273,"cap":26},{"id":"13010","name":"Place d'Italie - Vincent Auriol","lat":48.831482,"lon":2.356755,"cap":40},{"id":"13011","name":"Hôpital - Campo-Formio","lat":48.835405,"lon":2.358218,"cap":11},{"id":"13013","name":"Saint-Marcel - Hôpital","lat":48.839504,"lon":2.360989,"cap":21},{"id":"13015","name":"Chevaleret - Louise Weiss","lat":48.832587,"lon":2.371211,"cap":35},{"id":"13016","name":"Primo Levi - Frigos","lat":48.830948,"lon":2.379654,"cap":34},{"id":"13017","name":"Nationale - Vincent Auriol","lat":48.832527,"lon":2.362354,"cap":33},{"id":"13018","name":"Bruant - Vincent Auriol","lat":48.834848,"lon":2.366826,"cap":25},{"id":"13019","name":"Fernand Braudel - Vincent Auriol","lat":48.836379,"lon":2.37234,"cap":36},{"id":"13020","name":"Paul Klee - Place Augusta Holmes","lat":48.838946,"lon":2.370424,"cap":43},{"id":"13022","name":"Butte aux Cailles - Esperance","lat":48.827588,"lon":2.349215,"cap":36},{"id":"13023","name":"Bobillot - Moulin des Prés","lat":48.828657,"lon":2.353021,"cap":28},{"id":"13024","name":"Bobillot - Tolbiac","lat":48.825596,"lon":2.350204,"cap":33},{"id":"13026","name":"Place Jean Delay","lat":48.823316,"lon":2.354336,"cap":35},{"id":"13027","name":"Mazagran - Pierre de Coubertin","lat":48.816219,"lon":2.344227,"cap":15},{"id":"13028","name":"Gouthière - Poterne des Peupliers","lat":48.820507,"lon":2.351342,"cap":33},{"id":"13030","name":"Italie - Tolbiac","lat":48.825572,"lon":2.357617,"cap":21},{"id":"13032","name":"Italie - Jardin Joan Miro","lat":48.819909,"lon":2.359295,"cap":26},{"id":"13033","name":"Porte d'Italie","lat":48.817162,"lon":2.360236,"cap":13},{"id":"13035","name":"Choisy - Tolbiac","lat":48.825912,"lon":2.360239,"cap":20},{"id":"13036","name":"Olympiades","lat":48.826765,"lon":2.365086,"cap":36},{"id":"13037","name":"Ivry - Baudricourt","lat":48.824696,"lon":2.363106,"cap":20},{"id":"13039","name":"Ivry - Simone Weil","lat":48.823284,"lon":2.36591,"cap":18},{"id":"13041","name":"Porte d'Ivry","lat":48.821769,"lon":2.368871,"cap":50},{"id":"13043","name":"Dunois - Clisson","lat":48.832294,"lon":2.367452,"cap":51},{"id":"13044","name":"Place Jeanne d'Arc","lat":48.829575,"lon":2.369126,"cap":36},{"id":"13045","name":"Jean Colly - Tolbiac","lat":48.827817,"lon":2.370549,"cap":36},{"id":"13046","name":"Eugène Oudiné - Dessous Des Berges","lat":48.825642,"lon":2.375023,"cap":44},{"id":"13047","name":"Boutroux - Porte de Vitry","lat":48.822632,"lon":2.377738,"cap":49},{"id":"13048","name":"Wurtz - Tolbiac","lat":48.826312,"lon":2.344586,"cap":28},{"id":"13049","name":"Vincent Auriol - Louise Weiss","lat":48.834002,"lon":2.370389,"cap":22},{"id":"13050","name":"Quai Panhard et Levassor","lat":48.828375,"lon":2.384274,"cap":57},{"id":"13051","name":"Halle Freyssinet - Parvis Alan Turing","lat":48.832847,"lon":2.371142,"cap":37},{"id":"13052","name":"Leredde - Tolbiac","lat":48.828876,"lon":2.374438,"cap":44},{"id":"13053","name":"Chevaleret - Tolbiac","lat":48.82941,"lon":2.375934,"cap":35},{"id":"13054","name":"Pau Casals - Neuve Tolbiac","lat":48.83116,"lon":2.377439,"cap":78},{"id":"13055","name":"M.- A. Lagroua Weill-Hallé -  F. Dolto","lat":48.828595,"lon":2.380221,"cap":74},{"id":"13101","name":"Croulebarde - Corvisart","lat":48.830982,"lon":2.348165,"cap":34},{"id":"13102","name":"Pitié-Salpêtrière","lat":48.837488,"lon":2.365214,"cap":51},{"id":"13103","name":"Hôpital Pitié Salpêtrière","lat":48.837702,"lon":2.360495,"cap":50},{"id":"13104","name":"Gare d'Austerlitz - Quai Saint-Bernard","lat":48.84369,"lon":2.365716,"cap":27},{"id":"13106","name":"Bobillot - Paulin Mery","lat":48.8299,"lon":2.354336,"cap":23},{"id":"13109","name":"Brillat-Savarin - Küss","lat":48.822203,"lon":2.350422,"cap":21},{"id":"13110","name":"Moulin de la Pointe","lat":48.820929,"lon":2.356318,"cap":22},{"id":"13113","name":"Vistule - Choisy","lat":48.823655,"lon":2.361572,"cap":33},{"id":"13114","name":"Nationale - Marcel Duchamp","lat":48.824637,"lon":2.367801,"cap":23},{"id":"13116","name":"Place du Docteur Yersin","lat":48.820105,"lon":2.372558,"cap":50},{"id":"13117","name":"Stade Georges Carpentier","lat":48.820482,"lon":2.366832,"cap":40},{"id":"13118","name":"Regnault - Patay","lat":48.824358,"lon":2.377065,"cap":63},{"id":"13120","name":"Pierre Joseph Desault","lat":48.821102,"lon":2.378775,"cap":19},{"id":"13121","name":"Bruneseau - Quai d'Ivry","lat":48.824946,"lon":2.388566,"cap":46},{"id":"13123","name":"BNF - Bibliothèque Nationale de France","lat":48.835027,"lon":2.376016,"cap":42},{"id":"13125","name":"Gare d'Austerlitz - Pont Charles de Gaulle","lat":48.84232,"lon":2.36703,"cap":75},{"id":"13126","name":"Place Nationale - Château-des-Rentiers","lat":48.829268,"lon":2.365212,"cap":18},{"id":"13128","name":"Quai de la Gare - Pont de Bercy","lat":48.837308,"lon":2.374086,"cap":30},{"id":"13202","name":"Place Farhat Hached","lat":48.825487,"lon":2.381631,"cap":28},{"id":"13203","name":"Square de Choisy - Eastman","lat":48.828543,"lon":2.358308,"cap":24},{"id":"13204","name":"Tolbiac - Boussingault","lat":48.826178,"lon":2.342038,"cap":41},{"id":"13205","name":"Choisy - Pointe d'Ivry","lat":48.822154,"lon":2.363371,"cap":24},{"id":"13206","name":"Barrault - Place de Rungis","lat":48.822659,"lon":2.346759,"cap":49},{"id":"13208","name":"Tage - Italie","lat":48.822283,"lon":2.35843,"cap":31},{"id":"13209","name":"Italie - Vistule","lat":48.823439,"lon":2.358206,"cap":24},{"id":"13515","name":"Auguste Blanqui - Glacière","lat":48.831152,"lon":2.343822,"cap":60},{"id":"13516","name":"Glacière - Soeur Catherine Marie","lat":48.829523,"lon":2.34357,"cap":40},{"id":"14001","name":"Edgar Quinet - Gaité","lat":48.841161,"lon":2.324595,"cap":27},{"id":"14002","name":"Edgar Quinet - Raspail","lat":48.839403,"lon":2.329715,"cap":46},{"id":"14003","name":"Schoelcher - Raspail","lat":48.836817,"lon":2.331279,"cap":50},{"id":"14004","name":"Port Royal - Hôpital Cochin","lat":48.838608,"lon":2.340699,"cap":23},{"id":"14005","name":"René Coty - Place Denfert-Rochereau","lat":48.833056,"lon":2.332941,"cap":36},{"id":"14006","name":"Saint-Jacques - Tombe Issoire","lat":48.833206,"lon":2.336911,"cap":23},{"id":"14007","name":"Ferrus - Saint-Jacques","lat":48.831388,"lon":2.340856,"cap":34},{"id":"14008","name":"Mouton Duvernet - Général Leclerc","lat":48.831633,"lon":2.329312,"cap":28},{"id":"14009","name":"Tombe Issoire - René Coty","lat":48.830513,"lon":2.334361,"cap":36},{"id":"14010","name":"Jean Moulin - Place Victor et Hélène Basch","lat":48.827649,"lon":2.326197,"cap":41},{"id":"14011","name":"Place des Droits de l'Enfant","lat":48.82748,"lon":2.331922,"cap":39},{"id":"14012","name":"Sibelle - Alésia","lat":48.826702,"lon":2.338498,"cap":37},{"id":"14013","name":"Liard - Amiral Mouchez","lat":48.821417,"lon":2.342167,"cap":28},{"id":"14014","name":"Jourdan - Stade Charléty","lat":48.819428,"lon":2.343335,"cap":60},{"id":"14016","name":"René Coty - Parc Montsouris","lat":48.824791,"lon":2.336125,"cap":55},{"id":"14018","name":"Porte d'Orléans","lat":48.822764,"lon":2.324931,"cap":48},{"id":"14019","name":"Sarrette - Général Leclerc","lat":48.825031,"lon":2.326413,"cap":22},{"id":"14020","name":"Cimetière de Montrouge","lat":48.821467,"lon":2.321579,"cap":58},{"id":"14021","name":"Place de la Porte de Châtillon","lat":48.824247,"lon":2.318631,"cap":59},{"id":"14022","name":"Didot - Mariniers","lat":48.826505,"lon":2.313136,"cap":35},{"id":"14023","name":"Adolphe Pinard - Victor Hugo","lat":48.823683,"lon":2.307784,"cap":52},{"id":"14025","name":"Jacquier - Didot","lat":48.829533,"lon":2.318179,"cap":30},{"id":"14026","name":"Plantes - Moulin Vert","lat":48.830058,"lon":2.32323,"cap":45},{"id":"14027","name":"Gergovie - Alésia","lat":48.830887,"lon":2.318882,"cap":54},{"id":"14030","name":"Pernety - Raymond Losserand","lat":48.834255,"lon":2.317609,"cap":32},{"id":"14031","name":"Didot - Place de Moro-Giafferi","lat":48.8337,"lon":2.3215,"cap":22},{"id":"14032","name":"Mairie du 14ème","lat":48.832546,"lon":2.325492,"cap":32},{"id":"14034","name":"Ouest - Château","lat":48.836173,"lon":2.319392,"cap":41},{"id":"14035","name":"Maine - Jean Zay","lat":48.837925,"lon":2.322543,"cap":50},{"id":"14036","name":"Boulard - Daguerre","lat":48.834465,"lon":2.329339,"cap":45},{"id":"14101","name":"Gare Montparnasse - Edgar Quinet","lat":48.841488,"lon":2.323323,"cap":33},{"id":"14103","name":"Maine - Liancourt","lat":48.835064,"lon":2.323731,"cap":27},{"id":"14104","name":"Boyer-Barret - Raymond Losserand","lat":48.833299,"lon":2.317338,"cap":23},{"id":"14106","name":"Marc Sangnier - Porte de Vanves","lat":48.825219,"lon":2.310712,"cap":21},{"id":"14108","name":"Le Brix et Mesmin - Jourdan","lat":48.822341,"lon":2.327862,"cap":21},{"id":"14110","name":"Abbé Carton - Plantes","lat":48.827674,"lon":2.320918,"cap":25},{"id":"14111","name":"Cassini - Denfert-Rochereau","lat":48.837526,"lon":2.336035,"cap":25},{"id":"14112","name":"Méchain - Faubourg Saint-Jacques","lat":48.835868,"lon":2.33798,"cap":16},{"id":"14113","name":"Santé - Arago","lat":48.835077,"lon":2.341574,"cap":38},{"id":"14116","name":"Romain Rolland","lat":48.820215,"lon":2.323414,"cap":25},{"id":"14117","name":"Gare Montparnasse - René Mouchotte","lat":48.839204,"lon":2.320884,"cap":41},{"id":"14122","name":"Colonel Monteil - Brune","lat":48.826503,"lon":2.309275,"cap":19},{"id":"14124","name":"David Weill - Parc Montsouris","lat":48.821092,"lon":2.333726,"cap":22},{"id":"14125","name":"Dareau - Broussais","lat":48.830776,"lon":2.33618,"cap":24},{"id":"14127","name":"Odessa - Départ","lat":48.842886,"lon":2.324428,"cap":39},{"id":"14128","name":"Gergovie - Vercingétorix","lat":48.834534,"lon":2.313155,"cap":29},{"id":"14130","name":"Jonquoy - Didot","lat":48.828905,"lon":2.316481,"cap":30},{"id":"14131","name":"Jourdan - Monticelli","lat":48.822032,"lon":2.329095,"cap":30},{"id":"14132","name":"Bézout - Général Leclerc","lat":48.828848,"lon":2.328597,"cap":30},{"id":"14133","name":"Froidevaux - Boulard","lat":48.835147,"lon":2.329441,"cap":35},{"id":"14135","name":"Jourdan - Cité Universitaire","lat":48.819897,"lon":2.339701,"cap":39},{"id":"14136","name":"Auguste Cain - Jean Moulin","lat":48.82577,"lon":2.321042,"cap":40},{"id":"14137","name":"Maurice d'Ocagne - General Maudhuy","lat":48.824143,"lon":2.315879,"cap":30},{"id":"14138","name":"Porte de Vanves","lat":48.828013,"lon":2.305688,"cap":32},{"id":"14139","name":"Pierre Larousse - Raymond Losserand","lat":48.830596,"lon":2.311918,"cap":30},{"id":"14201","name":"Decrès - Alésia","lat":48.8322,"lon":2.313907,"cap":30},{"id":"15001","name":"Gare Montparnasse - Arrivée","lat":48.843828,"lon":2.322581,"cap":43},{"id":"15002","name":"Maine - Antoine Bourdelle","lat":48.843085,"lon":2.320264,"cap":17},{"id":"15003","name":"Gare Montparnasse - Vaugirard","lat":48.841807,"lon":2.31951,"cap":66},{"id":"15004","name":"Vaugirard - Pasteur","lat":48.840409,"lon":2.315437,"cap":21},{"id":"15005","name":"Place Jacques et Thérèse Tréfouël","lat":48.842726,"lon":2.312566,"cap":43},{"id":"15006","name":"Cherche-Midi - Hôpital Necker","lat":48.844611,"lon":2.317914,"cap":38},{"id":"15008","name":"Sèvres - Lecourbe","lat":48.844768,"lon":2.311009,"cap":62},{"id":"15009","name":"Suffren - Pérignon","lat":48.847176,"lon":2.307052,"cap":46},{"id":"15010","name":"Square Cambronne","lat":48.847567,"lon":2.302569,"cap":59},{"id":"15011","name":"Cambronne - Villa Croix Nivert","lat":48.845848,"lon":2.301757,"cap":62},{"id":"15012","name":"Cambronne - Mademoiselle","lat":48.843277,"lon":2.302308,"cap":67},{"id":"15013","name":"Volontaires - Lecourbe","lat":48.843514,"lon":2.306552,"cap":31},{"id":"15014","name":"Volontaires - Vaugirard","lat":48.841321,"lon":2.308089,"cap":34},{"id":"15017","name":"Place Falguière","lat":48.8363,"lon":2.310446,"cap":23},{"id":"15018","name":"Dutot - Place Alleray","lat":48.836826,"lon":2.30717,"cap":56},{"id":"15019","name":"Paul Barruel - Vaugirard","lat":48.840149,"lon":2.304433,"cap":39},{"id":"15020","name":"Mairie du 15ème","lat":48.841776,"lon":2.298654,"cap":46},{"id":"15021","name":"Joseph Liouville - Croix Nivert","lat":48.844835,"lon":2.297508,"cap":64},{"id":"15022","name":"Emile Zola - Fondary","lat":48.847051,"lon":2.295341,"cap":42},{"id":"15023","name":"La Motte-Picquet - Grenelle","lat":48.848583,"lon":2.299348,"cap":34},{"id":"15024","name":"Suffren - La Motte-Piquet","lat":48.850881,"lon":2.30122,"cap":23},{"id":"15025","name":"Dupleix - du Guesclin","lat":48.851479,"lon":2.29671,"cap":47},{"id":"15026","name":"Bir Hakeim","lat":48.853844,"lon":2.289705,"cap":33},{"id":"15027","name":"Duhamel - André Gide","lat":48.836566,"lon":2.312707,"cap":20},{"id":"15028","name":"Grenelle - Dr Finlay","lat":48.851315,"lon":2.29195,"cap":71},{"id":"15029","name":"Emeriau - Place de Brazzaville","lat":48.850785,"lon":2.287159,"cap":51},{"id":"15030","name":"Emeriau - Beaugrenelle","lat":48.847912,"lon":2.284306,"cap":74},{"id":"15031","name":"Théâtre - Lourmel","lat":48.848207,"lon":2.289866,"cap":53},{"id":"15032","name":"Félix Faure - Lourmel","lat":48.838689,"lon":2.281808,"cap":58},{"id":"15033","name":"Place Violet","lat":48.844879,"lon":2.290576,"cap":45},{"id":"15034","name":"Lakanal - Commerce","lat":48.844425,"lon":2.294059,"cap":53},{"id":"15035","name":"Place Etienne Pernet","lat":48.842435,"lon":2.292182,"cap":43},{"id":"15038","name":"Place Adolphe Cherioux - Vaugirard","lat":48.839594,"lon":2.301066,"cap":63},{"id":"15039","name":"Abbé Groult - Convention","lat":48.835969,"lon":2.302064,"cap":27},{"id":"15040","name":"Saint-Amand - Labrouste","lat":48.834097,"lon":2.308768,"cap":36},{"id":"15041","name":"Franquet - Labrouste","lat":48.832877,"lon":2.306763,"cap":37},{"id":"15042","name":"Henry Farman","lat":48.833724,"lon":2.271385,"cap":16},{"id":"15043","name":"Brancion - Lefebvre","lat":48.829002,"lon":2.301431,"cap":11},{"id":"15044","name":"Dantzig - Lefebvre","lat":48.830139,"lon":2.295934,"cap":33},{"id":"15045","name":"Porte de la Plaine","lat":48.828052,"lon":2.292428,"cap":35},{"id":"15046","name":"Parc Georges Brassens - Brancion","lat":48.832278,"lon":2.302257,"cap":29},{"id":"15047","name":"Morillons - Dantzig","lat":48.833101,"lon":2.29938,"cap":52},{"id":"15050","name":"Dominique Pado - Croix Nivert","lat":48.836488,"lon":2.289725,"cap":22},{"id":"15052","name":"Convention - Vaugirard","lat":48.837677,"lon":2.295587,"cap":62},{"id":"15053","name":"Lecourbe - Convention","lat":48.839233,"lon":2.29152,"cap":46},{"id":"15054","name":"Lecourbe - Jean Maridor","lat":48.837964,"lon":2.287739,"cap":19},{"id":"15055","name":"Vasco de Gama","lat":48.836718,"lon":2.283664,"cap":54},{"id":"15056","name":"Place Balard","lat":48.836396,"lon":2.278419,"cap":22},{"id":"15057","name":"Lucien Bossoutrot - Général Martial Vallin","lat":48.836956,"lon":2.274107,"cap":39},{"id":"15058","name":"Place du Moulin de Javel","lat":48.840217,"lon":2.271606,"cap":45},{"id":"15059","name":"Parc André Citroën","lat":48.84064,"lon":2.278062,"cap":65},{"id":"15060","name":"Place de la Montagne du Goulet","lat":48.844341,"lon":2.277384,"cap":21},{"id":"15061","name":"Square Desnouettes","lat":48.834768,"lon":2.284142,"cap":22},{"id":"15062","name":"Convention - Lourmel","lat":48.842055,"lon":2.285991,"cap":36},{"id":"15063","name":"Convention - Saint-Charles","lat":48.843156,"lon":2.283109,"cap":23},{"id":"15064","name":"Javel - André Citroën","lat":48.846276,"lon":2.278637,"cap":45},{"id":"15067","name":"Desaix - Edgar Faure","lat":48.852805,"lon":2.293077,"cap":12},{"id":"15068","name":"Général Martial Valin - Pont du Garigliano","lat":48.838231,"lon":2.270506,"cap":16},{"id":"15069","name":"Félix Faure - Convention","lat":48.841249,"lon":2.288387,"cap":44},{"id":"15070","name":"Balard - Montagne de la Fage","lat":48.838507,"lon":2.278287,"cap":36},{"id":"15071","name":"Suffren - Champ de Mars","lat":48.854719,"lon":2.295217,"cap":23},{"id":"15072","name":"Place Fernand Forest","lat":48.849269,"lon":2.281863,"cap":33},{"id":"15103","name":"Cauchy - Cévennes","lat":48.843373,"lon":2.275133,"cap":51},{"id":"15104","name":"Hôpital Européen Georges Pompidou","lat":48.837695,"lon":2.275374,"cap":78},{"id":"15105","name":"Fédération - Suffren","lat":48.852828,"lon":2.297878,"cap":25},{"id":"15106","name":"Grenelle - Violet","lat":48.84993,"lon":2.294612,"cap":35},{"id":"15107","name":"Palais des Sports","lat":48.833469,"lon":2.285872,"cap":22},{"id":"15108","name":"Lourmel - Marie Skobtsov","lat":48.844974,"lon":2.287283,"cap":36},{"id":"15109","name":"Cevennes - Bergers","lat":48.842408,"lon":2.281038,"cap":29},{"id":"15110","name":"Place Robert Guillemard","lat":48.836192,"lon":2.281127,"cap":24},{"id":"15111","name":"Olivier de Serres - Leriche","lat":48.834602,"lon":2.295748,"cap":25},{"id":"15112","name":"Vigée-Lebrun - Anselme Payen","lat":48.838684,"lon":2.311042,"cap":24},{"id":"15113","name":"Arsonval - Falguière","lat":48.8404,"lon":2.313118,"cap":25},{"id":"15114","name":"Pasteur - Cotentin","lat":48.838928,"lon":2.316356,"cap":33},{"id":"15120","name":"Colonel Pierre Avia","lat":48.829684,"lon":2.275343,"cap":29},{"id":"15122","name":"Place Charles Vallin","lat":48.835524,"lon":2.302599,"cap":26},{"id":"15123","name":"Commerce - Letellier","lat":48.847977,"lon":2.296625,"cap":44},{"id":"15125","name":"Parc Suzanne Lenglen","lat":48.833251,"lon":2.27654,"cap":52},{"id":"15127","name":"Place Charles Michels","lat":48.846401,"lon":2.28502,"cap":37},{"id":"15128","name":"Cadix - Hameau","lat":48.834011,"lon":2.289516,"cap":37},{"id":"15129","name":"Hôpital Necker","lat":48.846043,"lon":2.313245,"cap":40},{"id":"15131","name":"Charles Lecocq - Lecourbe","lat":48.84044,"lon":2.294867,"cap":48},{"id":"15132","name":"Bargue -  Dutot","lat":48.837884,"lon":2.308876,"cap":21},{"id":"15133","name":"Saint Lambert - Blomet","lat":48.836591,"lon":2.293056,"cap":27},{"id":"15201","name":"Place Amédée Gordini - Lefebvre","lat":48.830617,"lon":2.292063,"cap":38},{"id":"15202","name":"Bracion - Périphérique","lat":48.826104,"lon":2.300455,"cap":30},{"id":"15203","name":"Porte de Versailles","lat":48.832324,"lon":2.287562,"cap":28},{"id":"15204","name":"Square Bela Bartok","lat":48.850984,"lon":2.284436,"cap":24},{"id":"15311","name":"Quai du Président Roosevelt - Pont Aval","lat":48.834388,"lon":2.265682,"cap":30},{"id":"16002","name":"Pergolèse - Malakoff","lat":48.875211,"lon":2.284278,"cap":38},{"id":"16003","name":"André Maurois - Joseph et Marie Hackin","lat":48.877898,"lon":2.278959,"cap":29},{"id":"16005","name":"Raymond Poincaré - Place Victor Hugo","lat":48.870306,"lon":2.285075,"cap":25},{"id":"16006","name":"Lauriston - Copernic","lat":48.86926,"lon":2.289918,"cap":19},{"id":"16007","name":"Longchamp - Place d'Iéna","lat":48.864917,"lon":2.292675,"cap":40},{"id":"16008","name":"Galilée - Kléber","lat":48.867412,"lon":2.290781,"cap":32},{"id":"16009","name":"Saint-Didier - Raymond Poincaré","lat":48.866423,"lon":2.285863,"cap":17},{"id":"16010","name":"Belles Feuilles - Place de Mexico","lat":48.865805,"lon":2.282921,"cap":23},{"id":"16011","name":"Victor Hugo - La Pompe","lat":48.867952,"lon":2.281463,"cap":41},{"id":"16012","name":"Flandrin - Longchamp","lat":48.868778,"lon":2.274355,"cap":42},{"id":"16013","name":"Mairie du 16ème","lat":48.863937,"lon":2.276595,"cap":35},{"id":"16014","name":"Eylau - Trocadéro","lat":48.863354,"lon":2.286421,"cap":24},{"id":"16015","name":"Bassano -  Iéna","lat":48.868145,"lon":2.29615,"cap":15},{"id":"16017","name":"Siam - La Pompe","lat":48.86172,"lon":2.275347,"cap":16},{"id":"16018","name":"Flandrin - Henri Martin","lat":48.864328,"lon":2.272417,"cap":18},{"id":"16019","name":"Porte de la Muette","lat":48.863023,"lon":2.268719,"cap":36},{"id":"16020","name":"Place de la Porte de Passy","lat":48.857341,"lon":2.264417,"cap":36},{"id":"16021","name":"François Ponsard - La Muette","lat":48.858367,"lon":2.274452,"cap":23},{"id":"16022","name":"Jean Bologne - Passy","lat":48.857567,"lon":2.280027,"cap":19},{"id":"16023","name":"Passy - Place du Costa Rica","lat":48.858489,"lon":2.283965,"cap":33},{"id":"16024","name":"Ranelagh - Maison de la Radio","lat":48.852936,"lon":2.28045,"cap":22},{"id":"16025","name":"Jean de la Fontaine - Boulainvilliers","lat":48.852648,"lon":2.275866,"cap":68},{"id":"16026","name":"Ranelagh - Mozart","lat":48.855444,"lon":2.270442,"cap":23},{"id":"16027","name":"Mozart - Jasmin","lat":48.852861,"lon":2.268484,"cap":62},{"id":"16029","name":"Maison de Radio - France","lat":48.851329,"lon":2.277786,"cap":47},{"id":"16030","name":"Place de Barcelone - Mirabeau","lat":48.847623,"lon":2.273566,"cap":55},{"id":"16031","name":"Vignes - Boulainvilliers","lat":48.856399,"lon":2.27524,"cap":21},{"id":"16032","name":"Eglise d'Auteuil","lat":48.847498,"lon":2.268484,"cap":21},{"id":"16033","name":"Marché d'Auteuil","lat":48.848428,"lon":2.265254,"cap":32},{"id":"16034","name":"Porte d'Auteuil","lat":48.847939,"lon":2.26084,"cap":33},{"id":"16036","name":"Porte Molitor","lat":48.845248,"lon":2.256902,"cap":60},{"id":"16039","name":"Exelmans - Versailles","lat":48.840975,"lon":2.26439,"cap":49},{"id":"16040","name":"Exelmans - Michel-Ange","lat":48.843095,"lon":2.259777,"cap":33},{"id":"16041","name":"Versailles - Claude Terrasse","lat":48.840219,"lon":2.263834,"cap":46},{"id":"16042","name":"Murat - Porte de Saint-Cloud","lat":48.837509,"lon":2.257765,"cap":38},{"id":"16043","name":"Place de Passy","lat":48.857803,"lon":2.277501,"cap":15},{"id":"16044","name":"Porte de Saint Cloud - Parc des Princes","lat":48.838663,"lon":2.252516,"cap":32},{"id":"16101","name":"Malakoff - Place de la Porte Maillot","lat":48.876733,"lon":2.283458,"cap":28},{"id":"16102","name":"Pergolèse - Marbeau","lat":48.873569,"lon":2.281513,"cap":27},{"id":"16103","name":"Traktir - Foch","lat":48.872755,"lon":2.29155,"cap":22},{"id":"16104","name":"Paul Valery - Victor Hugo","lat":48.871374,"lon":2.288713,"cap":23},{"id":"16105","name":"Crevaux - Bugeaud","lat":48.870809,"lon":2.281149,"cap":31},{"id":"16107","name":"Benjamin Godard - Victor Hugo","lat":48.865983,"lon":2.275725,"cap":35},{"id":"16108","name":"Sablons - Georges Mandel","lat":48.863875,"lon":2.28189,"cap":38},{"id":"16110","name":"Octave Feuillet - Albéric Magnard","lat":48.861069,"lon":2.273028,"cap":21},{"id":"16111","name":"Faustin Hélie - Desbordes-Valmore","lat":48.859403,"lon":2.276522,"cap":33},{"id":"16112","name":"Chernoviz - Raynouard","lat":48.856986,"lon":2.282173,"cap":37},{"id":"16115","name":"Raffet - Montmorency","lat":48.852587,"lon":2.262925,"cap":42},{"id":"16116","name":"George Sand - Jean de La Fontaine","lat":48.849869,"lon":2.268257,"cap":29},{"id":"16118","name":"Michel-Ange - Parent de Rosan","lat":48.84058,"lon":2.258412,"cap":26},{"id":"16121","name":"Jardin d'Acclimatation","lat":48.878772,"lon":2.270772,"cap":33},{"id":"16122","name":"Route de la Muette - Porte de Neuilly","lat":48.879893,"lon":2.258767,"cap":50},{"id":"16123","name":"Mahatma Gandhi","lat":48.876356,"lon":2.264205,"cap":26},{"id":"16124","name":"Route de Sèvres - Porte de Bagatelle","lat":48.87526,"lon":2.249416,"cap":66},{"id":"16129","name":"Ceinture du Lac Inferieure - Saint-Cloud","lat":48.862181,"lon":2.261787,"cap":42},{"id":"16136","name":"Théophile Gautier - François Millet","lat":48.850348,"lon":2.27303,"cap":30},{"id":"16138","name":"Saint-Cloud - Hippodrome","lat":48.857721,"lon":2.254911,"cap":30},{"id":"16139","name":"Suresnes - Muette à Neuilly","lat":48.86857,"lon":2.266001,"cap":30},{"id":"16140","name":"Hippodrome de Longchamp","lat":48.864132,"lon":2.239905,"cap":30},{"id":"16201","name":"Porte Dauphine","lat":48.871139,"lon":2.274978,"cap":65},{"id":"16202","name":"Commandant Schloesing - Pétrarque","lat":48.861773,"lon":2.283884,"cap":30},{"id":"17001","name":"Guy Môquet - Saint-Ouen","lat":48.892778,"lon":2.327034,"cap":53},{"id":"17003","name":"Jacques Kellner - Saint-Ouen","lat":48.895809,"lon":2.327897,"cap":45},{"id":"17004","name":"Legendre - Clichy","lat":48.888962,"lon":2.322529,"cap":40},{"id":"17005","name":"Brochant - Clichy","lat":48.89033,"lon":2.319731,"cap":53},{"id":"17006","name":"Guy Môquet - Compoint","lat":48.892136,"lon":2.323219,"cap":36},{"id":"17007","name":"Navier - Epinettes","lat":48.895878,"lon":2.322678,"cap":54},{"id":"17008","name":"Porte Pouchet-Bessières","lat":48.897877,"lon":2.323063,"cap":23},{"id":"17010","name":"Jonquière - Docteur Paul Brousse","lat":48.8948,"lon":2.318705,"cap":54},{"id":"17011","name":"Fragonard - Porte de Clichy","lat":48.894156,"lon":2.314389,"cap":55},{"id":"17013","name":"Legendre - Dulong","lat":48.885325,"lon":2.316424,"cap":23},{"id":"17015","name":"Place de Lévis","lat":48.883547,"lon":2.313193,"cap":48},{"id":"17016","name":"Brochant - Square des Batignolles","lat":48.888187,"lon":2.316861,"cap":31},{"id":"17017","name":"Gare de Pont-Cardinet","lat":48.887139,"lon":2.314494,"cap":34},{"id":"17018","name":"Parc Monceau","lat":48.881078,"lon":2.309549,"cap":18},{"id":"17019","name":"Phalsbourg - Villiers","lat":48.882423,"lon":2.309045,"cap":20},{"id":"17020","name":"Jouffroy d'Abbans - Malesherbes","lat":48.885013,"lon":2.307072,"cap":27},{"id":"17021","name":"Jouffroy d'Abbans - Villiers","lat":48.884216,"lon":2.305653,"cap":34},{"id":"17022","name":"Pereire - Place de Wagram","lat":48.887071,"lon":2.304111,"cap":46},{"id":"17023","name":"Porte d'Asnières","lat":48.890358,"lon":2.303629,"cap":36},{"id":"17024","name":"Villiers - Batignolles","lat":48.881253,"lon":2.316538,"cap":23},{"id":"17025","name":"Chazelles - Courcelles","lat":48.879407,"lon":2.303446,"cap":35},{"id":"17026","name":"Jouffroy d'Abbans - Wagram","lat":48.881973,"lon":2.301132,"cap":40},{"id":"17027","name":"Place du Maréchal Juin - Péreire","lat":48.885263,"lon":2.298286,"cap":46},{"id":"17028","name":"Reims - Raymond Pitet","lat":48.8888,"lon":2.296319,"cap":37},{"id":"17029","name":"Pierre Demours - Laugier","lat":48.881307,"lon":2.294846,"cap":37},{"id":"17030","name":"Pereire - Rennequin","lat":48.883648,"lon":2.295245,"cap":23},{"id":"17032","name":"Jean Oestreicher - Porte de Champerret","lat":48.886556,"lon":2.28864,"cap":21},{"id":"17033","name":"Carnot - Général Lanrezac","lat":48.875444,"lon":2.293824,"cap":30},{"id":"17036","name":"Place Tristan Bernard","lat":48.879494,"lon":2.291542,"cap":28},{"id":"17037","name":"Bayen - Pereire","lat":48.881804,"lon":2.292109,"cap":22},{"id":"17038","name":"Grande Armée - Brunel","lat":48.876116,"lon":2.288124,"cap":62},{"id":"17039","name":"Place Saint-Ferdinand","lat":48.878155,"lon":2.288518,"cap":38},{"id":"17040","name":"Pereire - Ternes","lat":48.87974,"lon":2.288012,"cap":48},{"id":"17041","name":"Guersant - Gouvion-Saint-Cyr","lat":48.882878,"lon":2.287667,"cap":36},{"id":"17043","name":"Belidor - Gouvion-Saint-Cyr","lat":48.880222,"lon":2.285468,"cap":39},{"id":"17044","name":"Porte de Saint-Ouen - Bessières","lat":48.897922,"lon":2.328515,"cap":42},{"id":"17045","name":"Place des Ternes.","lat":48.878439,"lon":2.297728,"cap":46},{"id":"17046","name":"Mac-Mahon - Brey","lat":48.877532,"lon":2.294513,"cap":25},{"id":"17047","name":"Courcelles - Pierre Demours","lat":48.88377,"lon":2.298585,"cap":26},{"id":"17048","name":"De Toqueville - Terrasse","lat":48.882428,"lon":2.314002,"cap":30},{"id":"17050","name":"Batignolles - Abel Truchet","lat":48.883104,"lon":2.323835,"cap":28},{"id":"17102","name":"Alfred Roll - Berthier","lat":48.887809,"lon":2.300095,"cap":28},{"id":"17104","name":"Jardin Marguerite Long","lat":48.881699,"lon":2.283658,"cap":22},{"id":"17105","name":"Place Madeleine Daniélou","lat":48.883498,"lon":2.282015,"cap":42},{"id":"17106","name":"Berthier - Porte de Clichy","lat":48.894223,"lon":2.312587,"cap":24},{"id":"17107","name":"Berthier - Place Stuart Merril","lat":48.885928,"lon":2.293345,"cap":37},{"id":"17108","name":"Bessières - Porte de Clichy","lat":48.896118,"lon":2.317909,"cap":33},{"id":"17110","name":"Legendre - Nollet","lat":48.887742,"lon":2.320293,"cap":30},{"id":"17111","name":"Lemercier - Cardinet","lat":48.890097,"lon":2.317378,"cap":24},{"id":"17116","name":"Reims - Porte d'Asnières","lat":48.891834,"lon":2.300145,"cap":26},{"id":"17117","name":"Pereire - Saussure","lat":48.888229,"lon":2.31013,"cap":32},{"id":"17119","name":"Toqueville - Cardinet","lat":48.884902,"lon":2.310939,"cap":33},{"id":"17121","name":"Square des Epinettes","lat":48.893839,"lon":2.325954,"cap":40},{"id":"17122","name":"Bridaine - Lamandé","lat":48.886207,"lon":2.320624,"cap":29},{"id":"17123","name":"Mstislav Rostropovitch - Berthier","lat":48.892121,"lon":2.309234,"cap":18},{"id":"17124","name":"Porte de Saint-Ouen - Henri Huchard","lat":48.898708,"lon":2.329536,"cap":26},{"id":"17125","name":"Marie-Georges Picquart - Pereire","lat":48.888637,"lon":2.311171,"cap":32},{"id":"17126","name":"Hélène et François Missoffe - Emile Borel","lat":48.899907,"lon":2.321544,"cap":32},{"id":"17127","name":"Porte de Clichy - Place des Nations Unies","lat":48.896737,"lon":2.310543,"cap":40},{"id":"17201","name":"Porte Maillot - Perreire","lat":48.878021,"lon":2.284237,"cap":51},{"id":"17202","name":"Mariotte - Batignolles","lat":48.884572,"lon":2.32147,"cap":20},{"id":"17203","name":"Place de la Porte de Champeret","lat":48.886062,"lon":2.2917,"cap":28},{"id":"17204","name":"Paul Bodin - Clichy","lat":48.892595,"lon":2.31714,"cap":33},{"id":"18003","name":"Cimetière de Montmartre","lat":48.886472,"lon":2.33289,"cap":43},{"id":"18004","name":"Place des Abbesses","lat":48.884543,"lon":2.338687,"cap":12},{"id":"18005","name":"Tardieu - Chappe","lat":48.884147,"lon":2.341845,"cap":18},{"id":"18006","name":"Square Louise Michel","lat":48.884687,"lon":2.344139,"cap":36},{"id":"18007","name":"Goutte d'or - Barbès","lat":48.885124,"lon":2.349696,"cap":20},{"id":"18008","name":"Square Léon","lat":48.886674,"lon":2.353206,"cap":33},{"id":"18009","name":"Jean-François Lépine - Stephenson","lat":48.886115,"lon":2.356856,"cap":22},{"id":"18010","name":"Riquet - Marx Dormoy","lat":48.89021,"lon":2.360176,"cap":36},{"id":"18011","name":"Pajol - Place Herbert","lat":48.892783,"lon":2.36356,"cap":39},{"id":"18012","name":"Stephenson - Doudeauville","lat":48.888537,"lon":2.356161,"cap":36},{"id":"18014","name":"Léon - Doudeauville","lat":48.888324,"lon":2.353573,"cap":13},{"id":"18015","name":"Custine - Ramey","lat":48.888736,"lon":2.346953,"cap":41},{"id":"18016","name":"Francoeur - Caulaincourt","lat":48.889994,"lon":2.34253,"cap":34},{"id":"18017","name":"Caulaincourt - Place Constantin Pecqueur","lat":48.889678,"lon":2.338179,"cap":44},{"id":"18018","name":"Carpeaux - Place Jacques Froment","lat":48.890654,"lon":2.330943,"cap":19},{"id":"18019","name":"Square Raymond Souplex","lat":48.891837,"lon":2.335426,"cap":52},{"id":"18020","name":"Francoeur - Marcadet","lat":48.891041,"lon":2.340015,"cap":20},{"id":"18021","name":"Marcadet - Ramey","lat":48.890875,"lon":2.344902,"cap":39},{"id":"18022","name":"Marcadet - Barbès","lat":48.890451,"lon":2.349057,"cap":37},{"id":"18023","name":"Ordener - Poissonniers","lat":48.891214,"lon":2.351289,"cap":35},{"id":"18024","name":"Clignancourt - Ordener","lat":48.891458,"lon":2.348636,"cap":35},{"id":"18025","name":"Mairie du 18ème","lat":48.892939,"lon":2.344551,"cap":40},{"id":"18026","name":"Ruisseau - Ordener","lat":48.892995,"lon":2.340145,"cap":53},{"id":"18028","name":"Championnet - Vauvenargues","lat":48.894019,"lon":2.331987,"cap":33},{"id":"18029","name":"Emile Blemont - Poteau","lat":48.894378,"lon":2.341512,"cap":39},{"id":"18030","name":"Joseph Dijon - Ornano","lat":48.893745,"lon":2.347668,"cap":37},{"id":"18032","name":"Porte de Clignancourt.","lat":48.897488,"lon":2.343996,"cap":56},{"id":"18033","name":"Belliard - Damrémont","lat":48.896692,"lon":2.338023,"cap":34},{"id":"18034","name":"Leibniz - Jean Dollfus","lat":48.896328,"lon":2.33339,"cap":32},{"id":"18035","name":"René Binet - Porte de Montmartre","lat":48.899051,"lon":2.336553,"cap":37},{"id":"18039","name":"Jardins d'Eole","lat":48.88697,"lon":2.366849,"cap":20},{"id":"18041","name":"Rochechouart - Martyrs","lat":48.882194,"lon":2.34055,"cap":20},{"id":"18042","name":"Place Pigalle","lat":48.882756,"lon":2.336157,"cap":21},{"id":"18043","name":"Clichy - Place Blanche","lat":48.883601,"lon":2.333224,"cap":20},{"id":"18044","name":"Clichy - Douai","lat":48.883688,"lon":2.328064,"cap":32},{"id":"18045","name":"Pierre Ginier - Clichy","lat":48.886767,"lon":2.326228,"cap":16},{"id":"18046","name":"Etienne Jodelle - Saint Ouen","lat":48.88794,"lon":2.326124,"cap":33},{"id":"18049","name":"Porte d'Aubervilliers","lat":48.898597,"lon":2.368972,"cap":55},{"id":"18101","name":"Championnet.","lat":48.895364,"lon":2.349817,"cap":22},{"id":"18107","name":"Chartres - La Charbonnière","lat":48.88476,"lon":2.353466,"cap":34},{"id":"18109","name":"Pajol - Riquet","lat":48.8896,"lon":2.362853,"cap":47},{"id":"18110","name":"Departement - Pajol","lat":48.886675,"lon":2.361361,"cap":19},{"id":"18111","name":"Félix Ziem - Armand Gauthier","lat":48.889496,"lon":2.333394,"cap":25},{"id":"18112","name":"Arthur Ranc - Hôpital Bichat","lat":48.897871,"lon":2.333522,"cap":26},{"id":"18113","name":"Lepic - Armée d'Orient","lat":48.887536,"lon":2.334308,"cap":24},{"id":"18114","name":"Véron - Lepic","lat":48.885261,"lon":2.33456,"cap":23},{"id":"18134","name":"Ney - Porte de Clignancourt","lat":48.897887,"lon":2.3458,"cap":25},{"id":"18135","name":"Ney - Porte de Montmartre","lat":48.897918,"lon":2.336487,"cap":24},{"id":"18137","name":"Poissonniers - Nord","lat":48.892511,"lon":2.352223,"cap":28},{"id":"18138","name":"Station Paris Basketball - Ney - Charles Hermite","lat":48.898748,"lon":2.364575,"cap":20},{"id":"18139","name":"Poissonniers - Championnet","lat":48.895433,"lon":2.353018,"cap":28},{"id":"18140","name":"Porte de Clignancourt - Ney","lat":48.899641,"lon":2.344321,"cap":40},{"id":"18141","name":"Clignancourt - Sofia","lat":48.88512,"lon":2.347195,"cap":19},{"id":"18142","name":"Jessaint - Marx Dormoy","lat":48.884845,"lon":2.35893,"cap":30},{"id":"18201","name":"Tristan Tzara -  Tchaïkovski","lat":48.894902,"lon":2.364849,"cap":33},{"id":"18202","name":"Diane Arbus","lat":48.898801,"lon":2.352402,"cap":38},{"id":"18204","name":"Porte de la Chapelle - Boulevard Ney","lat":48.900097,"lon":2.358601,"cap":52},{"id":"18205","name":"Mauroy - Cheminots","lat":48.897715,"lon":2.357895,"cap":32},{"id":"18206","name":"Albert Kahn - Duhesme","lat":48.895623,"lon":2.345815,"cap":38},{"id":"18207","name":"Coysevox - Lamarck","lat":48.891072,"lon":2.329342,"cap":0},{"id":"18208","name":"Tourlaque - Damrémont","lat":48.887913,"lon":2.332831,"cap":16},{"id":"18209","name":"Cloys - Ordener","lat":48.893539,"lon":2.336443,"cap":38},{"id":"19001","name":"Crimée - Ourcq","lat":48.894104,"lon":2.372946,"cap":56},{"id":"19002","name":"Centquatre","lat":48.889334,"lon":2.370785,"cap":42},{"id":"19003","name":"Quai de la Seine","lat":48.884492,"lon":2.370394,"cap":24},{"id":"19005","name":"Flandre - Riquet","lat":48.888013,"lon":2.37376,"cap":21},{"id":"19007","name":"Flandre - Ourcq","lat":48.892602,"lon":2.379092,"cap":30},{"id":"19008","name":"Flandre - Alphonse Karr","lat":48.89465,"lon":2.381868,"cap":26},{"id":"19009","name":"Cité des Sciences et de l'Industrie","lat":48.896596,"lon":2.384599,"cap":30},{"id":"19010","name":"Emile Reynaud - Porte de la Villette","lat":48.90099,"lon":2.388702,"cap":22},{"id":"19012","name":"Lally-Tollendal - Armand Carrel","lat":48.882701,"lon":2.374718,"cap":28},{"id":"19013","name":"Laumière - Petit","lat":48.884674,"lon":2.380039,"cap":34},{"id":"19014","name":"Lorraine - Jean Jaurès","lat":48.886387,"lon":2.382577,"cap":19},{"id":"19015","name":"Thionville - Ourcq","lat":48.889176,"lon":2.383365,"cap":24},{"id":"19016","name":"Hautpoul - Jean Jaurès","lat":48.886394,"lon":2.386541,"cap":32},{"id":"19018","name":"Cité de la Musique","lat":48.888797,"lon":2.392581,"cap":60},{"id":"19019","name":"Petit - Manin","lat":48.886507,"lon":2.393816,"cap":22},{"id":"19021","name":"Mairie du 19ème","lat":48.882563,"lon":2.381262,"cap":27},{"id":"19022","name":"Marché Secrétan","lat":48.881255,"lon":2.373463,"cap":26},{"id":"19023","name":"Manin - Simon Bolivar","lat":48.8765,"lon":2.379407,"cap":26},{"id":"19024","name":"Botzaris - Parc des Buttes Chaumont","lat":48.877951,"lon":2.381464,"cap":20},{"id":"19025","name":"Botzaris - Crimée","lat":48.879597,"lon":2.388791,"cap":21},{"id":"19026","name":"Place de Rhin et Danube","lat":48.881928,"lon":2.392587,"cap":30},{"id":"19029","name":"Seine - Flandre","lat":48.886786,"lon":2.374619,"cap":19},{"id":"19030","name":"Melun - Jean Jaurès","lat":48.88378,"lon":2.376477,"cap":28},{"id":"19031","name":"Manin - Crimée","lat":48.883122,"lon":2.386367,"cap":23},{"id":"19032","name":"Villette - Belleville","lat":48.872688,"lon":2.376461,"cap":48},{"id":"19033","name":"Cambrai - Benjamin Constant","lat":48.895947,"lon":2.381134,"cap":43},{"id":"19036","name":"Hôpital Robert Debré","lat":48.880052,"lon":2.400865,"cap":33},{"id":"19037","name":"Belleville - Porte des Lilas","lat":48.876604,"lon":2.40477,"cap":32},{"id":"19038","name":"Lassus - Delouvain","lat":48.875504,"lon":2.389033,"cap":20},{"id":"19039","name":"Edouard Pailleron - Simon Bolivar","lat":48.879799,"lon":2.374839,"cap":24},{"id":"19040","name":"Belleville - Télégraphe","lat":48.875605,"lon":2.399555,"cap":41},{"id":"19041","name":"Belleville - Pyrénées","lat":48.874191,"lon":2.386004,"cap":42},{"id":"19043","name":"Delphine Seyrig - Général Leclerc","lat":48.893924,"lon":2.397903,"cap":53},{"id":"19044","name":"Grands Moulins de Pantin","lat":48.897384,"lon":2.395999,"cap":50},{"id":"19045","name":"Macdonald - Césaria Evora","lat":48.89883,"lon":2.37933,"cap":67},{"id":"19046","name":"Porte de Pantin.","lat":48.8892,"lon":2.395018,"cap":33},{"id":"19101","name":"Square Simon Bolivar","lat":48.87509,"lon":2.38263,"cap":24},{"id":"19103","name":"Manin - Carrières d'Amérique","lat":48.884672,"lon":2.39197,"cap":20},{"id":"19105","name":"Ambroise Rendu - Porte Brunet","lat":48.883667,"lon":2.395733,"cap":17},{"id":"19108","name":"Gaston Tessier - Rosa Parks RER","lat":48.896377,"lon":2.374369,"cap":37},{"id":"19109","name":"Tanger - Place du Maroc","lat":48.886252,"lon":2.36893,"cap":19},{"id":"19110","name":"Square Claude Bernard","lat":48.89876,"lon":2.375326,"cap":30},{"id":"19111","name":"Cesaria Evora - Rosa Parks","lat":48.897177,"lon":2.374517,"cap":40},{"id":"19113","name":"Pré Saint-Gervais - Lilas","lat":48.877871,"lon":2.395907,"cap":28},{"id":"19114","name":"Manin - Secrétan","lat":48.879166,"lon":2.378796,"cap":20},{"id":"19115","name":"Porte de la Villette","lat":48.898352,"lon":2.38615,"cap":27},{"id":"19117","name":"Euryale Dehaynin - Loire","lat":48.886249,"lon":2.377459,"cap":30},{"id":"19120","name":"Carducci - Place Hannah Arendt","lat":48.877437,"lon":2.386074,"cap":27},{"id":"19121","name":"Belleville -  Pré Saint-Gervais","lat":48.875566,"lon":2.393046,"cap":35},{"id":"19123","name":"Metz - Marne","lat":48.891163,"lon":2.38657,"cap":33},{"id":"19124","name":"Alexander Fleming - Belvédère","lat":48.881791,"lon":2.40306,"cap":31},{"id":"19125","name":"Place de l'Édit de Nantes","lat":48.88879,"lon":2.3785,"cap":30},{"id":"19127","name":"Aubervilliers - Curial","lat":48.890883,"lon":2.368858,"cap":23},{"id":"19128","name":"Quai de l'Oise - Aisne","lat":48.890623,"lon":2.38337,"cap":30},{"id":"19130","name":"Place Paul Delouvrier","lat":48.891976,"lon":2.385129,"cap":42},{"id":"19201","name":"Petit - Georges Thill","lat":48.886031,"lon":2.389575,"cap":23},{"id":"19202","name":"Marseillaise - Grenade","lat":48.889371,"lon":2.39794,"cap":45},{"id":"19203","name":"Pailleron - Bouret","lat":48.880517,"lon":2.37639,"cap":27},{"id":"19204","name":"Rampal - Belleville","lat":48.873115,"lon":2.379841,"cap":20},{"id":"19205","name":"Simon Bolivar - Henri Turot","lat":48.877475,"lon":2.373971,"cap":23},{"id":"19207","name":"Jean Jaurès - Bouret","lat":48.883145,"lon":2.371236,"cap":32},{"id":"19208","name":"Sérurier - Alphonse Aulard","lat":48.880529,"lon":2.398029,"cap":16},{"id":"19210","name":"Place des Fêtes - Solitaires","lat":48.876645,"lon":2.392033,"cap":29},{"id":"20001","name":"Place de la Nation - Charonne","lat":48.848365,"lon":2.399762,"cap":36},{"id":"20002","name":"Square de la rue Pixérécourt","lat":48.873682,"lon":2.396028,"cap":45},{"id":"20003","name":"Pyrénées - Cours de Vincennes","lat":48.847797,"lon":2.406172,"cap":21},{"id":"20004","name":"Commandant l'Herminier - Gallieni","lat":48.847041,"lon":2.416045,"cap":17},{"id":"20005","name":"Reynaldo Hahn - Lagny","lat":48.849266,"lon":2.41233,"cap":19},{"id":"20006","name":"Pyrénées - Plaine","lat":48.850267,"lon":2.406282,"cap":12},{"id":"20007","name":"Buzenval - Avron","lat":48.851617,"lon":2.401514,"cap":50},{"id":"20008","name":"Pyrénées - Avron","lat":48.853247,"lon":2.405871,"cap":32},{"id":"2001","name":"Greneta - Sebastopol","lat":48.865242,"lon":2.351667,"cap":32},{"id":"20010","name":"Sorbier - Gasnier-Guy","lat":48.865218,"lon":2.39366,"cap":34},{"id":"20011","name":"Pyrénées - Dagorno","lat":48.855426,"lon":2.405164,"cap":20},{"id":"20012","name":"Buzenval - Vignoles","lat":48.853858,"lon":2.400004,"cap":17},{"id":"20013","name":"Alexandre Dumas - Place de la Réunion","lat":48.855337,"lon":2.39977,"cap":45},{"id":"20014","name":"Charonne - Alexandre Dumas","lat":48.856077,"lon":2.394869,"cap":35},{"id":"20016","name":"Pyrénées - Maraîchers","lat":48.85714,"lon":2.404351,"cap":33},{"id":"20017","name":"Saint-Blaise - Mouraud","lat":48.856962,"lon":2.408695,"cap":27},{"id":"20019","name":"Place du Maquis du Vercors","lat":48.877322,"lon":2.408378,"cap":31},{"id":"2002","name":"Etienne Marcel - Montorgueil","lat":48.864506,"lon":2.346196,"cap":28},{"id":"20020","name":"Pyrénées - Charles Renouvier","lat":48.860959,"lon":2.400422,"cap":29},{"id":"20021","name":"Indre - Prairies","lat":48.862544,"lon":2.40329,"cap":38},{"id":"20022","name":"Porte de Bagnolet","lat":48.864707,"lon":2.408345,"cap":33},{"id":"20023","name":"Pelleport - Belgrand","lat":48.865001,"lon":2.403981,"cap":15},{"id":"20024","name":"Gambetta - Père Lachaise","lat":48.864296,"lon":2.398229,"cap":29},{"id":"20027","name":"Porte de Ménilmontant","lat":48.869154,"lon":2.409322,"cap":15},{"id":"20029","name":"Frères Flavien - Porte des Lilas","lat":48.878099,"lon":2.411046,"cap":23},{"id":"2003","name":"Saint-Denis - Réaumur","lat":48.866112,"lon":2.350779,"cap":32},{"id":"20030","name":"Ménilmontant - Père Lachaise","lat":48.863287,"lon":2.386994,"cap":41},{"id":"20032","name":"Square des Amandiers","lat":48.866156,"lon":2.389132,"cap":26},{"id":"20033","name":"Etienne Dolet - Place Maurice Chevalier","lat":48.867983,"lon":2.385141,"cap":47},{"id":"20034","name":"Sorbier - Ménilmontant","lat":48.868542,"lon":2.389772,"cap":24},{"id":"20035","name":"Pyrénées - Ménilmontant","lat":48.869327,"lon":2.395085,"cap":26},{"id":"20036","name":"Ménilmontant - Pelleport","lat":48.870683,"lon":2.39896,"cap":32},{"id":"20037","name":"Gambetta - Saint Fargeau","lat":48.871245,"lon":2.403906,"cap":24},{"id":"20039","name":"Belleville - Couronnes","lat":48.868831,"lon":2.380986,"cap":50},{"id":"2004","name":"Square Pierre Lazareff","lat":48.867142,"lon":2.348393,"cap":17},{"id":"20040","name":"Parc de Belleville - Julien Lacroix","lat":48.870346,"lon":2.384221,"cap":26},{"id":"20042","name":"Pyrénées - Emmery","lat":48.872029,"lon":2.39186,"cap":40},{"id":"20043","name":"Charonne - Avron","lat":48.851603,"lon":2.398403,"cap":27},{"id":"20044","name":"Davout - Volga","lat":48.85292,"lon":2.410523,"cap":28},{"id":"20045","name":"Louis Ganne - Davout","lat":48.863387,"lon":2.409726,"cap":30},{"id":"20047","name":"Cours de Vincennes - Davout","lat":48.847238,"lon":2.410704,"cap":48},{"id":"20048","name":"Bagnolet - Place Saint-Blaise","lat":48.85973,"lon":2.40334,"cap":28},{"id":"2005","name":"Montmartre - Etienne Marcel","lat":48.865022,"lon":2.345068,"cap":16},{"id":"2006","name":"Place des Victoires","lat":48.866035,"lon":2.342033,"cap":24},{"id":"2008","name":"Mairie du 2ème","lat":48.867219,"lon":2.340463,"cap":28},{"id":"2009","name":"Filles Saint-Thomas - Place de la Bourse","lat":48.8689,"lon":2.339754,"cap":58},{"id":"2010","name":"Uzès - Montmartre","lat":48.870791,"lon":2.343101,"cap":29},{"id":"20103","name":"Le Vau - Maurice Bertaux","lat":48.868034,"lon":2.411031,"cap":25},{"id":"20104","name":"Louis Lumière.","lat":48.862162,"lon":2.411126,"cap":22},{"id":"20105","name":"Benoît Frachon - République","lat":48.852307,"lon":2.415605,"cap":30},{"id":"20106","name":"Mairie du 20ème","lat":48.865302,"lon":2.399067,"cap":27},{"id":"20108","name":"Jardin de l'Hospice Debrousse","lat":48.861451,"lon":2.405686,"cap":23},{"id":"20110","name":"Gambetta - Tourelles","lat":48.875338,"lon":2.405992,"cap":20},{"id":"20111","name":"Villiers de l'Isle Adam - Pyrénées","lat":48.867362,"lon":2.396222,"cap":20},{"id":"20112","name":"Jourdain - Place des Grandes Rigoles","lat":48.874031,"lon":2.389595,"cap":22},{"id":"20113","name":"Piat - Parc de Belleville","lat":48.871956,"lon":2.384981,"cap":21},{"id":"20115","name":"Louis Lumière - Porte de Bagnolet","lat":48.864311,"lon":2.410521,"cap":20},{"id":"20116","name":"Haies - Réunion","lat":48.853869,"lon":2.402426,"cap":22},{"id":"20117","name":"Saint-Fargeau - Mortier","lat":48.872667,"lon":2.407913,"cap":31},{"id":"20118","name":"Orteaux - Mouraud","lat":48.855586,"lon":2.408763,"cap":24},{"id":"20119","name":"Square des Saint-Simoniens","lat":48.87018,"lon":2.396727,"cap":25},{"id":"2012","name":"Choiseul - Quatre Septembre","lat":48.869936,"lon":2.335998,"cap":44},{"id":"20121","name":"Boyer - Ménilmontant","lat":48.868895,"lon":2.391982,"cap":19},{"id":"20122","name":"Vitruve - Davout","lat":48.860532,"lon":2.409159,"cap":23},{"id":"2013","name":"Favart - Italiens","lat":48.871446,"lon":2.33829,"cap":17},{"id":"20131","name":"Repos - Cimetière du Père Lachaise","lat":48.859359,"lon":2.389613,"cap":33},{"id":"20132","name":"Réunion - Avron","lat":48.852567,"lon":2.403928,"cap":26},{"id":"20134","name":"Lieutenant Chauré - Etienne Marey","lat":48.867462,"lon":2.405971,"cap":20},{"id":"20136","name":"Henri Chevreau - Couronnes","lat":48.870332,"lon":2.388778,"cap":27},{"id":"20137","name":"Borrégo - Gambetta","lat":48.873305,"lon":2.401415,"cap":25},{"id":"2014","name":"Daunou - Louis le Grand","lat":48.869113,"lon":2.332515,"cap":32},{"id":"20140","name":"Paganini - Davout","lat":48.85135,"lon":2.412021,"cap":22},{"id":"20142","name":"Mûriers - Père Lachaise","lat":48.864131,"lon":2.39165,"cap":20},{"id":"20143","name":"Ramponeau - Belleville","lat":48.871031,"lon":2.379057,"cap":44},{"id":"2015","name":"Louis le Grand - Italiens","lat":48.870509,"lon":2.334054,"cap":33},{"id":"2016","name":"Aboukir - Alexandrie","lat":48.868683,"lon":2.350204,"cap":21},{"id":"2017","name":"Caire - Dussoubs","lat":48.867853,"lon":2.349364,"cap":40},{"id":"2020","name":"Danielle Casanova - Opéra","lat":48.867643,"lon":2.333389,"cap":20},{"id":"20201","name":"Eugène Reisz - Davout","lat":48.856319,"lon":2.410397,"cap":20},{"id":"20202","name":"Dupont de l'Eure - Gambetta","lat":48.867939,"lon":2.400365,"cap":31},{"id":"20203","name":"Evariste Galois","lat":48.873341,"lon":2.413354,"cap":21},{"id":"20204","name":"Monte Cristo - Bagnolet","lat":48.856566,"lon":2.39727,"cap":36},{"id":"20205","name":"Haxo - Darcy","lat":48.870493,"lon":2.404957,"cap":22},{"id":"2021","name":"Cléry - Montmartre","lat":48.867458,"lon":2.344521,"cap":58},{"id":"2022","name":"Saint-Fiacre - Poissonière","lat":48.870829,"lon":2.345921,"cap":35},{"id":"21001","name":"Transvaal - Charles de Gaulle","lat":48.84828,"lon":2.237342,"cap":27},{"id":"21002","name":"Place Denfert-Rochereau","lat":48.843253,"lon":2.245988,"cap":20},{"id":"21003","name":"Jean Jaurès - Jean Baptiste Clément","lat":48.845763,"lon":2.236965,"cap":39},{"id":"21004","name":"Jean Jaurès - Reine","lat":48.840096,"lon":2.239873,"cap":31},{"id":"21005","name":"Hôtel de Ville de Boulogne Billancourt","lat":48.834959,"lon":2.24168,"cap":26},{"id":"21006","name":"Marcelin Berthelot","lat":48.841547,"lon":2.233162,"cap":27},{"id":"21007","name":"Rond-Point Rhin et Danube","lat":48.840453,"lon":2.228023,"cap":53},{"id":"21008","name":"Victor Hugo - Galliéni","lat":48.83802,"lon":2.246085,"cap":34},{"id":"21009","name":"Le Corbusier - Jean Jaurès","lat":48.837808,"lon":2.240838,"cap":46},{"id":"2101","name":"Bachaumont - Montmartre","lat":48.866174,"lon":2.344978,"cap":33},{"id":"21010","name":"Silly - Galliéni","lat":48.835584,"lon":2.23255,"cap":25},{"id":"21011","name":"Silly - Louis Blériot","lat":48.83219,"lon":2.23402,"cap":23},{"id":"21013","name":"Pierre Grenier - Pont de Billancourt","lat":48.825802,"lon":2.248799,"cap":21},{"id":"21014","name":"Hameau Fleuri - Marché","lat":48.831449,"lon":2.24124,"cap":22},{"id":"21015","name":"Nationale - Place Jules Guesde","lat":48.82754,"lon":2.241605,"cap":23},{"id":"21016","name":"Point du Jour - Jean Jaurès","lat":48.828753,"lon":2.245911,"cap":40},{"id":"21017","name":"Place Marcel Sembat","lat":48.833289,"lon":2.244175,"cap":56},{"id":"21019","name":"Edouard Vaillant - Paul-Adolphe Souriau","lat":48.834846,"lon":2.247946,"cap":28},{"id":"2102","name":"Saint-Marc - Feydeau","lat":48.870327,"lon":2.341872,"cap":37},{"id":"21021","name":"Enfants du Paradis - Peupliers","lat":48.833123,"lon":2.257146,"cap":40},{"id":"21022","name":"Dôme - République","lat":48.832681,"lon":2.250257,"cap":25},{"id":"21023","name":"Ancienne Mairie - André Morizet","lat":48.838311,"lon":2.234077,"cap":25},{"id":"21024","name":"Billancourt - Général Leclerc","lat":48.832265,"lon":2.238041,"cap":22},{"id":"21026","name":"Sèvres - Général Leclerc","lat":48.830122,"lon":2.231426,"cap":30},{"id":"21027","name":"Fief - République","lat":48.831709,"lon":2.255772,"cap":25},{"id":"21028","name":"Pierre Lefaucheux - Traversière","lat":48.824352,"lon":2.241791,"cap":35},{"id":"21029","name":"Cours de l'Ile Seguin - Parc Billancourt","lat":48.827141,"lon":2.234235,"cap":29},{"id":"21030","name":"Fessart - Château","lat":48.84245,"lon":2.23989,"cap":20},{"id":"21031","name":"Cimetière de Boulogne-Billancourt","lat":48.830764,"lon":2.252024,"cap":40},{"id":"21032","name":"Sèvres-Gallieni","lat":48.837809,"lon":2.228152,"cap":27},{"id":"21033","name":"Sèvres - Maréchal Juin","lat":48.832431,"lon":2.229281,"cap":18},{"id":"21034","name":"Place Daydé - Ile Seguin","lat":48.822959,"lon":2.236231,"cap":31},{"id":"2108","name":"Vivienne - Montmartre","lat":48.871348,"lon":2.341459,"cap":54},{"id":"2110","name":"Jeûneurs - Mulhouse","lat":48.868997,"lon":2.346925,"cap":28},{"id":"21104","name":"Madame de Sanzillon - Mozart","lat":48.903798,"lon":2.31874,"cap":22},{"id":"21105","name":"Morice - Général Leclerc","lat":48.902455,"lon":2.312893,"cap":25},{"id":"21107","name":"Bertrand Sincholle - Henri Barbusse","lat":48.89926,"lon":2.304229,"cap":23},{"id":"21108","name":"Mairie de Clichy","lat":48.903654,"lon":2.305935,"cap":51},{"id":"21109","name":"Guichet - Jean Jaurès","lat":48.90517,"lon":2.302384,"cap":28},{"id":"2111","name":"Chabanais - Petits Champs","lat":48.867037,"lon":2.336716,"cap":30},{"id":"21110","name":"Parc Roger Salengro","lat":48.905304,"lon":2.310559,"cap":35},{"id":"21111","name":"Professeur René Leriche - Général Leclerc","lat":48.907828,"lon":2.307888,"cap":50},{"id":"21112","name":"Claude Debussy - Marc Bloch","lat":48.910388,"lon":2.311777,"cap":56},{"id":"21114","name":"Gustave Eiffel - Parc des Impressionnistes","lat":48.903906,"lon":2.294691,"cap":30},{"id":"21115","name":"Chancé Milly - Cimetière Communal Sud","lat":48.896872,"lon":2.303922,"cap":32},{"id":"21118","name":"Neuilly - Petit","lat":48.898965,"lon":2.296279,"cap":16},{"id":"21119","name":"Belfort - Victor Hugo","lat":48.901849,"lon":2.317272,"cap":24},{"id":"21120","name":"Docteur Calmette - Martre","lat":48.898969,"lon":2.308651,"cap":30},{"id":"21203","name":"Place Jules Ferry","lat":48.812108,"lon":2.325837,"cap":28},{"id":"21204","name":"Estienne d'Orves - Henri Ginoux","lat":48.815388,"lon":2.320887,"cap":31},{"id":"21205","name":"Arthur Auger - Jean Jaurès","lat":48.813736,"lon":2.306928,"cap":26},{"id":"21207","name":"Verdier - République","lat":48.815404,"lon":2.317394,"cap":29},{"id":"21209","name":"Molière - République","lat":48.811116,"lon":2.314574,"cap":30},{"id":"21212","name":"Marne - Germain Dardan","lat":48.812175,"lon":2.303502,"cap":22},{"id":"21213","name":"Vanne - Général de Gaulle","lat":48.815007,"lon":2.328318,"cap":25},{"id":"21215","name":"Verdier - Jean Jaurès","lat":48.81614,"lon":2.312356,"cap":33},{"id":"21216","name":"Louis Lejeune - Barbès","lat":48.818074,"lon":2.326701,"cap":25},{"id":"21217","name":"Louis Rolland - République","lat":48.817109,"lon":2.319311,"cap":26},{"id":"21218","name":"Gabriel Péri - Place de la Libération","lat":48.819828,"lon":2.311736,"cap":18},{"id":"21219","name":"Amaury Duval - Gabriel Péri","lat":48.817188,"lon":2.323842,"cap":36},{"id":"21301","name":"Saint-Vincent - Verdun","lat":48.819212,"lon":2.254008,"cap":34},{"id":"21302","name":"Aristide Briand - Place de la Résistance","lat":48.821242,"lon":2.2511,"cap":25},{"id":"21303","name":"Jean Monnet - Iles","lat":48.823394,"lon":2.249707,"cap":32},{"id":"21305","name":"Place Jacques Madaule","lat":48.823934,"lon":2.260692,"cap":25},{"id":"21306","name":"Place Lafayette","lat":48.829655,"lon":2.263868,"cap":62},{"id":"21307","name":"Victor Cresson - Telles de la Poterie","lat":48.822699,"lon":2.26865,"cap":31},{"id":"21308","name":"Bara - Henri Farman","lat":48.833218,"lon":2.267757,"cap":58},{"id":"21309","name":"Mairie d'Issy","lat":48.823768,"lon":2.272311,"cap":41},{"id":"21310","name":"Kléber - Gouverneur Général Eboué","lat":48.826886,"lon":2.272341,"cap":24},{"id":"21311","name":"Parvis Corentin Celton","lat":48.827473,"lon":2.278432,"cap":55},{"id":"21312","name":"Lucie Aubrac - Fort","lat":48.818145,"lon":2.271185,"cap":30},{"id":"21313","name":"Guynemer - Séverine","lat":48.830917,"lon":2.279071,"cap":26},{"id":"21314","name":"Chemin de Bretagne","lat":48.824753,"lon":2.258839,"cap":29},{"id":"21315","name":"Jules Guesdes - Général de Gaulle","lat":48.819306,"lon":2.278934,"cap":24},{"id":"21316","name":"Cimetière d'Issy-les-Moulineaux","lat":48.8177,"lon":2.260931,"cap":24},{"id":"21319","name":"Esplanade du Foncet - Camille Desmoulins","lat":48.82709,"lon":2.260686,"cap":28},{"id":"21320","name":"Président Roosevelt - Rouget de Lisle","lat":48.830475,"lon":2.261614,"cap":40},{"id":"21323","name":"Charlot - Stade Gabriel Voisin","lat":48.827228,"lon":2.268123,"cap":31},{"id":"21326","name":"Moulin de Pierre - Abbé Grégoire","lat":48.822036,"lon":2.275464,"cap":20},{"id":"21327","name":"Jean Bouin - Gouverneur Général Eboué","lat":48.824793,"lon":2.26519,"cap":31},{"id":"21328","name":"Verger - Colonel Guichard","lat":48.816377,"lon":2.267038,"cap":29},{"id":"21329","name":"Gare - Aristide Briand","lat":48.821411,"lon":2.255595,"cap":29},{"id":"21401","name":"Mairie de Clamart","lat":48.800612,"lon":2.262151,"cap":33},{"id":"21402","name":"Place Aimé Césaire","lat":48.783195,"lon":2.242913,"cap":27},{"id":"21404","name":"Jean Jaurès - Gare de Clamart","lat":48.81322,"lon":2.271677,"cap":20},{"id":"21501","name":"Pont de Suresnes","lat":48.867415,"lon":2.225895,"cap":51},{"id":"21502","name":"Verdun - Place Henri IV","lat":48.870797,"lon":2.2277,"cap":26},{"id":"21505","name":"Édouard Vaillant - Place Jean Jaurès","lat":48.862655,"lon":2.208904,"cap":24},{"id":"21506","name":"Maurice Payret-Dortail","lat":48.87812,"lon":2.223363,"cap":22},{"id":"21507","name":"Gardenat-Lapostol - Velettes","lat":48.87387,"lon":2.224185,"cap":20},{"id":"21508","name":"Georges Pompidou - Verdun","lat":48.875481,"lon":2.232443,"cap":26},{"id":"21509","name":"Gardenat Lapostol - Franklin Roosevelt","lat":48.871839,"lon":2.222505,"cap":24},{"id":"21510","name":"Fontaine du Tertre - Calvaire","lat":48.870254,"lon":2.218778,"cap":24},{"id":"21511","name":"Marcel Monge - Marcel Dassault","lat":48.860964,"lon":2.224673,"cap":46},{"id":"21514","name":"Place de la Paix - Abbé Saint-Pierre","lat":48.864627,"lon":2.204757,"cap":24},{"id":"21701","name":"Larmeroux - Baudelaire","lat":48.81694,"lon":2.280989,"cap":29},{"id":"21702","name":"Gare SNCF Vanves-Malakoff","lat":48.819002,"lon":2.29215,"cap":51},{"id":"21703","name":"Square du Carrefour de l'Insurrection","lat":48.820865,"lon":2.291113,"cap":23},{"id":"21704","name":"Place du Maréchal de Lattre de Tassigny","lat":48.821708,"lon":2.285343,"cap":27},{"id":"21706","name":"Jean Bleuzen - Square du 11 Novembre","lat":48.823258,"lon":2.296521,"cap":49},{"id":"21707","name":"Square Etienne Jarousse","lat":48.824852,"lon":2.292593,"cap":25},{"id":"21708","name":"Marcel Yol - Jullien","lat":48.825376,"lon":2.287235,"cap":30},{"id":"21951","name":"Place Centrale","lat":48.787402,"lon":2.227883,"cap":22},{"id":"21952","name":"Place Tony de Graaff","lat":48.818165,"lon":2.245811,"cap":42},{"id":"21953","name":"Gare de Bellevue","lat":48.81924,"lon":2.229531,"cap":20},{"id":"21954","name":"Val-Fleury","lat":48.807671,"lon":2.240722,"cap":23},{"id":"21955","name":"Vaugirard - Verrerie","lat":48.820881,"lon":2.236722,"cap":26},{"id":"22001","name":"Château - Bineau","lat":48.890404,"lon":2.270106,"cap":23},{"id":"22002","name":"Argenson - Château","lat":48.888559,"lon":2.2642,"cap":25},{"id":"22003","name":"Beffroy","lat":48.886591,"lon":2.261395,"cap":26},{"id":"22006","name":"Pierret - Madrid","lat":48.882977,"lon":2.260126,"cap":28},{"id":"22007","name":"Commandant Charcot - Bretteville","lat":48.875306,"lon":2.255846,"cap":36},{"id":"2201","name":"Vivienne - Petits Champs","lat":48.867331,"lon":2.339144,"cap":30},{"id":"22012","name":"Madeleine Michelis - Roule","lat":48.882604,"lon":2.277363,"cap":25},{"id":"22013","name":"Mairie de Neuilly sur Seine","lat":48.884947,"lon":2.267703,"cap":31},{"id":"22014","name":"Victor Hugo - Bineau","lat":48.887582,"lon":2.278389,"cap":25},{"id":"22015","name":"Île de la Jatte","lat":48.894036,"lon":2.266634,"cap":23},{"id":"22016","name":"Charles de Gaulle - Sablonville","lat":48.879919,"lon":2.276377,"cap":26},{"id":"22017","name":"Charles de Gaulle - Louis Philippe","lat":48.881742,"lon":2.271005,"cap":28},{"id":"22018","name":"Charles de Gaulle - Les Sablons","lat":48.880988,"lon":2.271575,"cap":35},{"id":"22019","name":"Charles de Gaulle","lat":48.885368,"lon":2.259562,"cap":18},{"id":"2202","name":"Réaumur - Montmartre","lat":48.867912,"lon":2.344872,"cap":38},{"id":"22101","name":"Gare Routière de Saint Cloud","lat":48.842882,"lon":2.222245,"cap":31},{"id":"22102","name":"Mont Valérien - Michel Salles","lat":48.856192,"lon":2.215297,"cap":24},{"id":"22103","name":"Senard - Charles Blum","lat":48.857316,"lon":2.221092,"cap":24},{"id":"22201","name":"Henri Ravera - Gabriel Péri","lat":48.797223,"lon":2.302116,"cap":30},{"id":"22203","name":"Tertres - Fontaine","lat":48.787554,"lon":2.306236,"cap":28},{"id":"22206","name":"Louis Pasteur - Albert Petit","lat":48.796261,"lon":2.317289,"cap":31},{"id":"22207","name":"Rond-point du Dr Albert Schweitzer","lat":48.789809,"lon":2.314394,"cap":22},{"id":"22208","name":"Stalingrad - Barbara","lat":48.809224,"lon":2.31759,"cap":20},{"id":"22301","name":"Chausson - Gabriel Péri","lat":48.921891,"lon":2.295231,"cap":22},{"id":"22302","name":"Gare RER - Général de Gaulle","lat":48.933548,"lon":2.306473,"cap":41},{"id":"22303","name":"Lucien Lanternier - Le Luth","lat":48.931594,"lon":2.288978,"cap":27},{"id":"22304","name":"ZAC des Louvresses","lat":48.943682,"lon":2.305786,"cap":32},{"id":"22305","name":"Jean Jaurès - Place du Dr Roux","lat":48.927567,"lon":2.294734,"cap":35},{"id":"22306","name":"Place du 17 Octobre","lat":48.919627,"lon":2.297829,"cap":20},{"id":"22401","name":"Charles de Gaulle - Plateau de Vanves","lat":48.822331,"lon":2.298572,"cap":33},{"id":"22402","name":"Jean Jaurès - Salvador Allende","lat":48.821476,"lon":2.302658,"cap":43},{"id":"22403","name":"Pierre Brossolette - Adolphe Pinard","lat":48.821772,"lon":2.313156,"cap":24},{"id":"22404","name":"Pierre Brossolette - 12 Février 1934","lat":48.817696,"lon":2.307612,"cap":25},{"id":"22406","name":"Guy Môquet - Etienne Dolet","lat":48.81527,"lon":2.298078,"cap":23},{"id":"22408","name":"Place du 14 Juillet","lat":48.819267,"lon":2.3012,"cap":22},{"id":"22409","name":"Henri Barbusse - Stalingrad","lat":48.814184,"lon":2.287286,"cap":16},{"id":"22501","name":"Théâtre de La Garenne","lat":48.905658,"lon":2.234595,"cap":20},{"id":"22502","name":"Kléber - National","lat":48.906334,"lon":2.239391,"cap":20},{"id":"22503","name":"Joffre - Aigle","lat":48.904033,"lon":2.245096,"cap":20},{"id":"22505","name":"Mairie de La Garenne Colombes","lat":48.906638,"lon":2.246796,"cap":22},{"id":"22506","name":"Gare des Vallées","lat":48.913179,"lon":2.257726,"cap":20},{"id":"22507","name":"Châteaudun - Place de la Liberté","lat":48.909708,"lon":2.245449,"cap":26},{"id":"22508","name":"Château -République","lat":48.905905,"lon":2.253453,"cap":17},{"id":"22601","name":"Marx Dormoy - Château Sainte-Barbe","lat":48.791782,"lon":2.297857,"cap":22},{"id":"22602","name":"Place Henri Dunant - Gare RER","lat":48.788093,"lon":2.290923,"cap":31},{"id":"22603","name":"Place de la Division Leclerc","lat":48.793825,"lon":2.273114,"cap":34},{"id":"22604","name":"Hôtel de Ville de Fontenay-aux-Roses","lat":48.790845,"lon":2.287146,"cap":34},{"id":"22701","name":"Général Leclerc - République","lat":48.915885,"lon":2.268231,"cap":30},{"id":"22703","name":"Place Jean Mermoz","lat":48.922094,"lon":2.271835,"cap":30},{"id":"23001","name":"Paul Vaillant Couturier - Chaptal","lat":48.89348,"lon":2.277525,"cap":39},{"id":"23002","name":"Pont de Levallois-bécon","lat":48.898418,"lon":2.279131,"cap":50},{"id":"23003","name":"Président Wilson - Baudin","lat":48.898269,"lon":2.284934,"cap":28},{"id":"23004","name":"Paul Vaillant-Couturier - Victor Hugo","lat":48.898197,"lon":2.293848,"cap":36},{"id":"23005","name":"Gare de Clichy-Levallois","lat":48.896798,"lon":2.298468,"cap":26},{"id":"23006","name":"Jules Guesde - Alsace","lat":48.890566,"lon":2.295078,"cap":25},{"id":"23007","name":"Président Wilson - Jean Jaures","lat":48.890341,"lon":2.292068,"cap":27},{"id":"23008","name":"Hôtel de Ville de Levallois Perret","lat":48.893145,"lon":2.288882,"cap":26},{"id":"23009","name":"Anatole France - Louise Michel","lat":48.888732,"lon":2.288158,"cap":50},{"id":"23010","name":"Voltaire - Anatole France","lat":48.891999,"lon":2.284263,"cap":27},{"id":"23011","name":"Bineau - Louise Michel","lat":48.886662,"lon":2.284327,"cap":26},{"id":"23041","name":"Général Leclerc - Bièvre","lat":48.782414,"lon":2.31667,"cap":25},{"id":"23042","name":"André Theuriet - Blagis","lat":48.779773,"lon":2.313053,"cap":30},{"id":"23101","name":"Grande Rue - Europe","lat":48.82181,"lon":2.20588,"cap":25},{"id":"23102","name":"Hôtel de Ville de Sèvres","lat":48.824364,"lon":2.213105,"cap":32},{"id":"23104","name":"Quai de Sèvres - Manufacture Nationale","lat":48.828688,"lon":2.22499,"cap":28},{"id":"23105","name":"Sèvres Rive Gauche","lat":48.821443,"lon":2.215079,"cap":33},{"id":"23106","name":"Pavé des Gardes - Charles Vaillant","lat":48.811686,"lon":2.211182,"cap":20},{"id":"23107","name":"Gare de Sèvres - Ville d'Avray","lat":48.826262,"lon":2.200152,"cap":22},{"id":"23201","name":"Avenir","lat":48.810344,"lon":2.300378,"cap":45},{"id":"23202","name":"Henri Barbusse - Gabriel Péri","lat":48.801774,"lon":2.287417,"cap":28},{"id":"23203","name":"Division Leclerc - Kléber","lat":48.798666,"lon":2.283375,"cap":25},{"id":"23204","name":"Roland Garros - Jean Bouin","lat":48.809461,"lon":2.28532,"cap":28},{"id":"23205","name":"Parc des Pierrettes","lat":48.797306,"lon":2.290997,"cap":23},{"id":"23206","name":"Béranger - Félix Faure","lat":48.804048,"lon":2.284826,"cap":28},{"id":"23301","name":"Les Blagis","lat":48.785205,"lon":2.302526,"cap":27},{"id":"23303","name":"Gare de Robinson","lat":48.779926,"lon":2.281829,"cap":30},{"id":"23304","name":"Mairie de Sceaux","lat":48.778917,"lon":2.288736,"cap":33},{"id":"23305","name":"Roossevelt - Impasse du Marché","lat":48.777117,"lon":2.29681,"cap":0},{"id":"23403","name":"Chateau","lat":48.774661,"lon":2.313588,"cap":22},{"id":"23701","name":"Parvis Robert Schuman - Roger Salengro","lat":48.812657,"lon":2.192175,"cap":24},{"id":"23702","name":"Hôtel de Ville de Chaville","lat":48.808871,"lon":2.188134,"cap":20},{"id":"23703","name":"Gare de Chaville Rive Gauche","lat":48.80516,"lon":2.188277,"cap":18},{"id":"23801","name":"Place de la Gare","lat":48.838514,"lon":2.186614,"cap":20},{"id":"23802","name":"Raymond Poincaré - Allée de la Marche","lat":48.838634,"lon":2.17241,"cap":23},{"id":"23803","name":"Sydney Bechet - Jacques Gautier","lat":48.844373,"lon":2.188248,"cap":20},{"id":"23805","name":"Suresnes - Place du Souvenir Français","lat":48.847008,"lon":2.19411,"cap":16},{"id":"23806","name":"Suisses - Colonel de Rochebrune","lat":48.854407,"lon":2.19751,"cap":16},{"id":"23902","name":"Gallieni - Lycée Charles Petitet","lat":48.92764,"lon":2.330899,"cap":45},{"id":"23903","name":"Stade Gaston Bouillant","lat":48.939959,"lon":2.327957,"cap":30},{"id":"23904","name":"Avenue de la Paix - Chaillon","lat":48.935291,"lon":2.326089,"cap":19},{"id":"24001","name":"Arche - Léonard de Vinci","lat":48.89791,"lon":2.238372,"cap":28},{"id":"24002","name":"Gare de Courbevoie","lat":48.899387,"lon":2.250651,"cap":35},{"id":"24005","name":"Edith Cavell - Volta","lat":48.901617,"lon":2.269354,"cap":33},{"id":"24006","name":"Adolphe Lalyre - Armand Silvestre","lat":48.904063,"lon":2.273416,"cap":40},{"id":"24007","name":"Jean-Baptiste Charcot - Sainte-Geneviève","lat":48.903109,"lon":2.278893,"cap":21},{"id":"24010","name":"Charles de Gaulle - Rue de l'Alma","lat":48.896621,"lon":2.252313,"cap":28},{"id":"24101","name":"Place Charles de Gaulle","lat":48.826073,"lon":2.189449,"cap":24},{"id":"24102","name":"Versailles","lat":48.818291,"lon":2.165542,"cap":1},{"id":"25001","name":"Colmar - Victor Hugo","lat":48.886523,"lon":2.173961,"cap":32},{"id":"25002","name":"Hôtel de Ville de Rueil-Malmaison","lat":48.878194,"lon":2.181724,"cap":20},{"id":"25003","name":"Henri Ste-Claire Déville - Paul Héroult","lat":48.892663,"lon":2.172411,"cap":24},{"id":"25004","name":"Marcel Pourtout - Édouard Manet","lat":48.875556,"lon":2.165597,"cap":24},{"id":"25005","name":"18 juin 1940 - Buzenval","lat":48.868807,"lon":2.185428,"cap":25},{"id":"25006","name":"Place Nelson Mandela","lat":48.862453,"lon":2.196167,"cap":22},{"id":"25007","name":"Bons Raisins - Voltaire","lat":48.872825,"lon":2.194716,"cap":24},{"id":"25008","name":"Place du 8 Mai 1945","lat":48.871552,"lon":2.202503,"cap":18},{"id":"25009","name":"Place des Arts - Jean Mermoz","lat":48.880391,"lon":2.183216,"cap":20},{"id":"25010","name":"Maréchal Leclerc de Hauteclocque - Marché Buzenval","lat":48.858446,"lon":2.192077,"cap":30},{"id":"26001","name":"Gare d'Asnières sur Seine","lat":48.906365,"lon":2.283507,"cap":24},{"id":"26002","name":"Redoute - Les Courtilles","lat":48.929867,"lon":2.28367,"cap":40},{"id":"26003","name":"Argenteuil - Voltaire","lat":48.918649,"lon":2.281411,"cap":16},{"id":"26004","name":"Gare RER les Grésillons","lat":48.919899,"lon":2.314585,"cap":22},{"id":"26005","name":"Hôtel de Ville d'Asnières sur Seine","lat":48.909993,"lon":2.288238,"cap":30},{"id":"26006","name":"Bas - Gabriel Péri","lat":48.915856,"lon":2.29481,"cap":30},{"id":"26007","name":"Square Gilbert Thomain","lat":48.907174,"lon":2.26954,"cap":20},{"id":"26008","name":"Henri Barbusse - Bourguignons","lat":48.913017,"lon":2.273421,"cap":34},{"id":"26009","name":"Marceau Delorme - Pierre Brossolette","lat":48.912061,"lon":2.295897,"cap":28},{"id":"26010","name":"Louis Armand - Bernard Palissy","lat":48.916974,"lon":2.313384,"cap":21},{"id":"26011","name":"Ménil - Argenteuil","lat":48.925902,"lon":2.27415,"cap":20},{"id":"26012","name":"Jardin Modèle - Pierre Boudou","lat":48.914867,"lon":2.305701,"cap":18},{"id":"26013","name":"Quai du docteur Dervaux","lat":48.910482,"lon":2.297998,"cap":26},{"id":"27001","name":"Square Victor Basch","lat":48.914305,"lon":2.228916,"cap":20},{"id":"27002","name":"Parc Pierre Lagravère","lat":48.926505,"lon":2.23907,"cap":30},{"id":"27004","name":"Gare de la Garenne-Colombes","lat":48.909752,"lon":2.239145,"cap":28},{"id":"27005","name":"Gare du Stade","lat":48.931268,"lon":2.260378,"cap":20},{"id":"27006","name":"Victor Hugo - Gare","lat":48.923134,"lon":2.260097,"cap":22},{"id":"27008","name":"Labouret - Saint-Denis","lat":48.924067,"lon":2.253916,"cap":24},{"id":"28001","name":"Richard Wallace - Place du 8 Mai 1945","lat":48.878668,"lon":2.242034,"cap":30},{"id":"28002","name":"De Gaulle - Moulin","lat":48.885817,"lon":2.229608,"cap":23},{"id":"28005","name":"Jean Jaurès - Paul Lafargue","lat":48.884933,"lon":2.248449,"cap":28},{"id":"30001","name":"Hôtel de Ville - Adrienne Bolland","lat":48.90528,"lon":2.445544,"cap":33},{"id":"30002","name":"Jean Rostand - Paul Vaillant Couturier","lat":48.908168,"lon":2.45306,"cap":40},{"id":"30003","name":"Moscou - Edouard Vaillant","lat":48.907558,"lon":2.468984,"cap":30},{"id":"30004","name":"Jean Jaurès - Place de la Libération","lat":48.906178,"lon":2.439146,"cap":29},{"id":"30005","name":"Convention - Campus de Bobigny","lat":48.91492,"lon":2.417224,"cap":32},{"id":"30006","name":"Pierre-Simon Girard  - Paris","lat":48.901342,"lon":2.456019,"cap":35},{"id":"3001","name":"Beaumarchais - Saint-Gilles","lat":48.858038,"lon":2.367935,"cap":51},{"id":"3002","name":"Saint-Gilles - Turenne","lat":48.858159,"lon":2.364715,"cap":18},{"id":"3003","name":"Fille du Calvaire - Turenne","lat":48.862105,"lon":2.36496,"cap":29},{"id":"3004","name":"Place de la République - Temple","lat":48.867211,"lon":2.363546,"cap":18},{"id":"3005","name":"Sainte-Elisabeth - Turbigo","lat":48.866103,"lon":2.359649,"cap":33},{"id":"3006","name":"Mairie du 3ème","lat":48.864462,"lon":2.361763,"cap":32},{"id":"3007","name":"Archives - Pastourelle","lat":48.862361,"lon":2.359504,"cap":28},{"id":"3008","name":"Perle - Vieille du Temple","lat":48.860135,"lon":2.361121,"cap":36},{"id":"3009","name":"Temple - Haudriettes","lat":48.861637,"lon":2.356696,"cap":19},{"id":"3010","name":"Beaubourg - Michel-le-Comte","lat":48.862535,"lon":2.35431,"cap":17},{"id":"3011","name":"Turbigo - Réaumur","lat":48.865574,"lon":2.35642,"cap":31},{"id":"3012","name":"Square Emile - Chautemps","lat":48.867434,"lon":2.353636,"cap":25},{"id":"31001","name":"Lagny - Auguste Blanqui","lat":48.849226,"lon":2.42186,"cap":27},{"id":"31003","name":"Paris - Emile Zola","lat":48.854898,"lon":2.418669,"cap":30},{"id":"31005","name":"Square Denise Buisson","lat":48.856232,"lon":2.426436,"cap":45},{"id":"31007","name":"Paris - Désiré Préaux","lat":48.857429,"lon":2.432305,"cap":49},{"id":"31009","name":"Place Du Général De Gaulle","lat":48.868759,"lon":2.432993,"cap":26},{"id":"3101","name":"Porte Saint-Martin","lat":48.868602,"lon":2.355701,"cap":34},{"id":"31010","name":"Stalingrad - Désiré Chevalier","lat":48.856702,"lon":2.445072,"cap":42},{"id":"31012","name":"Place Carnot","lat":48.855939,"lon":2.441532,"cap":25},{"id":"31013","name":"Centenaire - Sorins","lat":48.858535,"lon":2.427351,"cap":45},{"id":"31016","name":"Lucie Aubrac - Franklin","lat":48.862239,"lon":2.443586,"cap":36},{"id":"31017","name":"Jean Moulin - Paul Doumer","lat":48.862218,"lon":2.455334,"cap":20},{"id":"31018","name":"Gambetta - Michelet","lat":48.852738,"lon":2.429966,"cap":33},{"id":"31019","name":"Vincennes - Douy-Delcupe","lat":48.854937,"lon":2.436049,"cap":38},{"id":"3102","name":"Bourg l'Abbé - Saint-Martin","lat":48.863933,"lon":2.352406,"cap":61},{"id":"31020","name":"Résistance - Parmentier","lat":48.859651,"lon":2.436705,"cap":35},{"id":"31021","name":"Résistance - Hoche","lat":48.864273,"lon":2.435784,"cap":29},{"id":"31022","name":"Mairie de Montreuil","lat":48.861315,"lon":2.440614,"cap":52},{"id":"31023","name":"Place François Mitterand","lat":48.864928,"lon":2.442958,"cap":34},{"id":"31024","name":"Romainville - Vaillant-Couturier","lat":48.86785,"lon":2.446748,"cap":38},{"id":"31025","name":"Paul Signac - Aristide Briand","lat":48.869503,"lon":2.450226,"cap":35},{"id":"31026","name":"Demi-Lune - Aristide Briand","lat":48.876264,"lon":2.456282,"cap":20},{"id":"31028","name":"Raspail Barbès","lat":48.852995,"lon":2.424739,"cap":28},{"id":"31029","name":"Vincennes - François Debergue","lat":48.857498,"lon":2.437526,"cap":24},{"id":"31101","name":"Jules Guesde - Laennec","lat":48.87629,"lon":2.500694,"cap":19},{"id":"31102","name":"Boissière - Etienne Dolet","lat":48.876111,"lon":2.467731,"cap":21},{"id":"31103","name":"Gare Rosny-Bois-Perrier","lat":48.88115,"lon":2.480437,"cap":35},{"id":"31104","name":"Mairie de Rosny-sous-Bois","lat":48.871257,"lon":2.486581,"cap":30},{"id":"31105","name":"Lavoisier - Missak Manouchian","lat":48.862865,"lon":2.495676,"cap":18},{"id":"31201","name":"Suzanne Masson","lat":48.923307,"lon":2.384729,"cap":37},{"id":"31202","name":"Gabriel Péri - Jules Ferry","lat":48.926183,"lon":2.39123,"cap":25},{"id":"31203","name":"Henri Barbusse","lat":48.932093,"lon":2.398288,"cap":30},{"id":"31301","name":"Gare RER","lat":48.89628,"lon":2.458157,"cap":30},{"id":"31303","name":"Simone Signoret - Paris","lat":48.903601,"lon":2.465407,"cap":28},{"id":"31701","name":"Mairie de Bagnolet","lat":48.868421,"lon":2.417959,"cap":28},{"id":"31702","name":"Pierre et Marie Curie - Julien Grimau","lat":48.870714,"lon":2.424097,"cap":18},{"id":"31703","name":"Sadi Carnot - François Mitterrand","lat":48.875327,"lon":2.424162,"cap":27},{"id":"31704","name":"Jeanne Hornet - Girardot","lat":48.873803,"lon":2.42782,"cap":29},{"id":"31705","name":"Champeaux - Gallieni","lat":48.864459,"lon":2.416178,"cap":50},{"id":"31706","name":"Château - République","lat":48.862924,"lon":2.415504,"cap":26},{"id":"31707","name":"Edouard Vaillant - Galliéni","lat":48.858463,"lon":2.414795,"cap":49},{"id":"31708","name":"Noisy le Sec - Jean-Baptiste Clément","lat":48.874515,"lon":2.415284,"cap":22},{"id":"31709","name":"Place de la Fraternité","lat":48.857164,"lon":2.422847,"cap":22},{"id":"32001","name":"Proudhon - Président Wilson","lat":48.906443,"lon":2.358491,"cap":30},{"id":"32003","name":"Wilson - Métallurgie","lat":48.909423,"lon":2.358444,"cap":28},{"id":"32004","name":"Wilson - Landy","lat":48.915167,"lon":2.357633,"cap":40},{"id":"3201","name":"Payenne - Square George Caïn","lat":48.857833,"lon":2.362264,"cap":24},{"id":"32010","name":"Place aux Étoiles","lat":48.918356,"lon":2.352343,"cap":40},{"id":"32011","name":"Stade de France - Francis de Pressensé","lat":48.919142,"lon":2.362066,"cap":44},{"id":"32012","name":"Carrefour Pleyel","lat":48.920342,"lon":2.343854,"cap":68},{"id":"32013","name":"Saint-Denis - Université","lat":48.945634,"lon":2.36383,"cap":24},{"id":"32014","name":"Place du Cornillon - Stade de France","lat":48.925407,"lon":2.364443,"cap":34},{"id":"32015","name":"Gare RER de Saint-Denis","lat":48.935543,"lon":2.347149,"cap":40},{"id":"32016","name":"Place de la Porte de Paris","lat":48.930094,"lon":2.356404,"cap":40},{"id":"32017","name":"Basilique","lat":48.936269,"lon":2.358867,"cap":22},{"id":"32018","name":"Franciade - Gabriel Péri","lat":48.932615,"lon":2.355954,"cap":26},{"id":"32019","name":"Place du 8 mai 1945.","lat":48.938882,"lon":2.356624,"cap":30},{"id":"32020","name":"Jules Guesdes - Carnot","lat":48.938282,"lon":2.350899,"cap":16},{"id":"32021","name":"Place du Front Populaire - George Sand","lat":48.906807,"lon":2.364541,"cap":65},{"id":"32022","name":"Henri Barbusse - Marcel Cachin","lat":48.937421,"lon":2.372037,"cap":37},{"id":"32023","name":"Guy Môquet - Jean Moulin","lat":48.940932,"lon":2.363949,"cap":30},{"id":"32024","name":"Port - Confluence","lat":48.936094,"lon":2.343617,"cap":26},{"id":"32026","name":"Leroy des Barres - Médiathèque","lat":48.928254,"lon":2.368172,"cap":26},{"id":"32301","name":"Mairie de Romainville","lat":48.885109,"lon":2.435679,"cap":17},{"id":"32302","name":"Chemin Vert - Fraternité","lat":48.877141,"lon":2.446157,"cap":20},{"id":"32304","name":"Charcot - Benfleet","lat":48.87837,"lon":2.440524,"cap":28},{"id":"32305","name":"Saint-Germain - Verdun","lat":48.882877,"lon":2.433187,"cap":30},{"id":"32306","name":"Verdun - Carnot","lat":48.883815,"lon":2.440266,"cap":29},{"id":"32308","name":"Gaston Roussel - Commune de Paris","lat":48.894441,"lon":2.432307,"cap":50},{"id":"32601","name":"Porte des Lilas - Faidherbe","lat":48.878619,"lon":2.412033,"cap":39},{"id":"32603","name":"Calmette","lat":48.881049,"lon":2.424993,"cap":32},{"id":"32604","name":"Square du Théâtre du Garde-Chasse","lat":48.881287,"lon":2.42012,"cap":50},{"id":"32605","name":"Mairie","lat":48.879143,"lon":2.416335,"cap":20},{"id":"33001","name":"Victor Hugo - Magasins Généraux","lat":48.903281,"lon":2.368072,"cap":34},{"id":"33003","name":"Bordier - Félix Faure","lat":48.903908,"lon":2.383006,"cap":48},{"id":"33005","name":"République - Henri Barbusse","lat":48.906616,"lon":2.389432,"cap":32},{"id":"33006","name":"André Karman - République","lat":48.910399,"lon":2.385136,"cap":31},{"id":"33009","name":"Félix Faure - Sadi Carnot","lat":48.908121,"lon":2.378623,"cap":33},{"id":"33012","name":"Landy - Heurtault","lat":48.915097,"lon":2.375951,"cap":30},{"id":"33014","name":"Parc Eli Lotar","lat":48.91845,"lon":2.372709,"cap":20},{"id":"33015","name":"Charles Tillon - Cimetière Communal","lat":48.91844,"lon":2.393563,"cap":30},{"id":"33016","name":"Fort d'Aubervilliers","lat":48.915024,"lon":2.403528,"cap":22},{"id":"33017","name":"Anatole France - President Roosevelt","lat":48.915516,"lon":2.38141,"cap":29},{"id":"33018","name":"Edouard Poisson - Victor Hugo","lat":48.911186,"lon":2.379865,"cap":30},{"id":"33019","name":"Madeleine Vionnet","lat":48.902519,"lon":2.37409,"cap":34},{"id":"33020","name":"Waldeck Rochet - Germaine Tillon","lat":48.91106,"lon":2.36763,"cap":31},{"id":"33102","name":"Gabriel Péri - Francisco Ferrer","lat":48.886337,"lon":2.407339,"cap":18},{"id":"33103","name":"Jean Jaurès - Jules Jacquemin","lat":48.884331,"lon":2.40829,"cap":24},{"id":"34002","name":"Capitaine Glarner - Gabriel Péri","lat":48.90245,"lon":2.330481,"cap":27},{"id":"34005","name":"Adrien Lesesne - Docteur Bauer","lat":48.902639,"lon":2.348248,"cap":30},{"id":"34008","name":"Garibaldi - Gabriel Péri","lat":48.905742,"lon":2.331604,"cap":30},{"id":"34009","name":"Dora Maar - Nadia Guendouz","lat":48.905452,"lon":2.322041,"cap":30},{"id":"34010","name":"Hôtel de Ville de Saint-Ouen","lat":48.91138,"lon":2.334008,"cap":48},{"id":"34011","name":"Clef des Champs - Albert Dhalenne","lat":48.914938,"lon":2.330665,"cap":28},{"id":"34012","name":"Bateliers - Quai de Seine","lat":48.915818,"lon":2.323953,"cap":26},{"id":"34013","name":"Blanqui - Docteur Bauer","lat":48.907735,"lon":2.340719,"cap":28},{"id":"34014","name":"Michelet - Dr Bauer","lat":48.906125,"lon":2.344037,"cap":32},{"id":"34015","name":"Louis Dain - Rosiers","lat":48.904676,"lon":2.337954,"cap":35},{"id":"34016","name":"Bateliers - Hippodrome","lat":48.911262,"lon":2.328868,"cap":0},{"id":"34501","name":"Quai de Seine - Pont de l'île-Saint-Denis","lat":48.935421,"lon":2.340839,"cap":25},{"id":"35001","name":"Jean Jaurès - Ouvrières Pivéreuses","lat":48.910423,"lon":2.399577,"cap":22},{"id":"35002","name":"Jean Jaurès - Presles","lat":48.907134,"lon":2.396006,"cap":31},{"id":"35003","name":"Gabrielle Josserand - Edouard Vaillant","lat":48.902716,"lon":2.393327,"cap":25},{"id":"35004","name":"Place du Président Salvador Allende","lat":48.897307,"lon":2.400792,"cap":60},{"id":"35005","name":"Quai de l'Aisne - Général Leclerc","lat":48.895713,"lon":2.400571,"cap":27},{"id":"35006","name":"Delizy - Louis Nadot","lat":48.896213,"lon":2.409458,"cap":22},{"id":"35007","name":"Benjamin Delessert - Jean Lolive","lat":48.89392,"lon":2.417982,"cap":21},{"id":"35008","name":"Place de l'Eglise - Pantin","lat":48.892809,"lon":2.412435,"cap":30},{"id":"35009","name":"Jean Lolive - Parc Stalingrad","lat":48.892062,"lon":2.409174,"cap":22},{"id":"35010","name":"Hoche - Jean Lolive","lat":48.891102,"lon":2.402844,"cap":24},{"id":"35012","name":"Candale - Mehul","lat":48.889394,"lon":2.41438,"cap":25},{"id":"35013","name":"Guillaume Tell - Parc Henri Barbusse","lat":48.889589,"lon":2.419886,"cap":20},{"id":"35014","name":"Charles de Gaulle - Jean Lolive","lat":48.893264,"lon":2.412677,"cap":26},{"id":"35015","name":"Averroès - Aimé Césaire","lat":48.914053,"lon":2.412637,"cap":19},{"id":"35017","name":"Toffier Decaux - Cartier Bresson","lat":48.901651,"lon":2.401755,"cap":18},{"id":"35018","name":"Ancien Canal - Hélène Brion","lat":48.894848,"lon":2.418834,"cap":23},{"id":"35019","name":"Anatole France - Jean Lolive","lat":48.894992,"lon":2.425376,"cap":28},{"id":"35020","name":"Marcelle - Thalie","lat":48.883546,"lon":2.413788,"cap":20},